state,countyname,fips,lon,lat,tp_totpop,ps_gwpop,ps_swpop,ps_topop,ps_wgwto,ps_wswto,ps_wtotl,do_sspop,do_sspcp,do_psdel,do_pspcp,do_wfrto,do_wdelv_,in_wgwto,in_wswto,in_wtotl,ir_wfrto,ir_recww,ir_cusfr,ir_irtot,ic_wfrto,ic_recww,ic_cusfr,ic_irtot,ig_wfrto,ig_recww,ig_cusfr,ig_irtot,li_wfrto,aq_wgwto,aq_wswto,aq_wtotl,mi_wgwto,mi_wswto,mi_wtotl,pt_wgwto,pt_wswto,pt_wtotl,pt_recww,pt_psdel,pt_cutot,pt_power,po_wgwto,po_wswto,po_wtotl,po_recww,po_psdel,po_cutot,po_power,pc_wgwto,pc_wswto,pc_wtotl,pc_recww,pc_psdel,pc_cutot,pc_power,to_wgwto,to_wswto,to_wtotl,to_cutotpartial,population,median_household_income,tmean_c,tdmean_c,netmean_c,himean_c,hxmean_c,wbgtmean_c,flag_t,flag_td,flag_net,flag_hi,flag_hx,flag_wbgt,normal_wet,abnormally_dry,moderate_drought,severe_drought,extreme_drought,exceptional_drought,cluster_model1,cluster_model2,cluster_model3,cluster_model4
ME,Washington,23029,-67.6361,45.0363,31.625,9.446,1.9,11.346,1.38,0.19,1.57,20.279,53.0,0.58,51.0,1.07,1.65,0.39,26.98,27.37,7.37,0.0,7.02,15.18,7.34,0.0,6.99,15.13,0.03,0.0,0.03,0.05,0.01,0.0,9.9,9.9,0.01,0.1,0.11,0.35,0.0,0.35,0.0,0.0,0.25,125.81,0.0,0.0,0.0,0.0,0.0,0.0,0.0,0.35,0.0,0.35,0.0,0.0,0.25,125.81,6.88,40.87,47.75,7.27,32191.0,38083.0,6.65,2.39,-2.55,6.35,6.24,6.2,0.0,0.0,0.0,0.0,0.0,0.0,86.78,13.22,0.0,0.0,0.0,0.0,4,27,4,45
GA,McIntosh,13191,-81.2646,31.5329,13.969,10.497,0.0,10.497,1.04,0.0,1.04,3.472,75.0,0.94,90.0,0.26,1.2,0.02,0.0,0.02,0.16,0.0,0.16,0.15,0.0,0.0,0.0,0.0,0.16,0.0,0.16,0.15,0.0,0.0,0.0,0.0,0.0,0.0,0.0,0.0,0.0,0.0,0.0,0.0,0.0,0.0,0.0,0.0,0.0,0.0,0.0,0.0,0.0,0.0,0.0,0.0,0.0,0.0,0.0,0.0,1.48,0.0,1.48,0.16,14007.0,42988.0,20.64,16.44,14.46,21.35,26.32,19.77,0.0,0.0,0.0,0.0,0.0,0.0,75.07,24.93,2.25,0.0,0.0,0.0,4,27,4,34
GA,McIntosh,13191,-81.2646,31.5329,13.969,10.497,0.0,10.497,1.04,0.0,1.04,3.472,75.0,0.94,90.0,0.26,1.2,0.02,0.0,0.02,0.16,0.0,0.16,0.15,0.0,0.0,0.0,0.0,0.16,0.0,0.16,0.15,0.0,0.0,0.0,0.0,0.0,0.0,0.0,0.0,0.0,0.0,0.0,0.0,0.0,0.0,0.0,0.0,0.0,0.0,0.0,0.0,0.0,0.0,0.0,0.0,0.0,0.0,0.0,0.0,1.48,0.0,1.48,0.16,14007.0,42988.0,20.64,16.44,14.46,21.35,26.32,19.77,0.0,0.0,0.0,0.0,0.0,0.0,75.07,24.93,2.25,0.0,0.0,0.0,4,27,4,34
GA,McIntosh,13191,-81.2646,31.5329,13.969,10.497,0.0,10.497,1.04,0.0,1.04,3.472,75.0,0.94,90.0,0.26,1.2,0.02,0.0,0.02,0.16,0.0,0.16,0.15,0.0,0.0,0.0,0.0,0.16,0.0,0.16,0.15,0.0,0.0,0.0,0.0,0.0,0.0,0.0,0.0,0.0,0.0,0.0,0.0,0.0,0.0,0.0,0.0,0.0,0.0,0.0,0.0,0.0,0.0,0.0,0.0,0.0,0.0,0.0,0.0,1.48,0.0,1.48,0.16,14007.0,42988.0,20.64,16.44,14.46,21.35,26.32,19.77,0.0,0.0,0.0,0.0,0.0,0.0,75.07,24.93,2.25,0.0,0.0,0.0,4,27,4,34
GA,McIntosh,13191,-81.2646,31.5329,13.969,10.497,0.0,10.497,1.04,0.0,1.04,3.472,75.0,0.94,90.0,0.26,1.2,0.02,0.0,0.02,0.16,0.0,0.16,0.15,0.0,0.0,0.0,0.0,0.16,0.0,0.16,0.15,0.0,0.0,0.0,0.0,0.0,0.0,0.0,0.0,0.0,0.0,0.0,0.0,0.0,0.0,0.0,0.0,0.0,0.0,0.0,0.0,0.0,0.0,0.0,0.0,0.0,0.0,0.0,0.0,1.48,0.0,1.48,0.16,14007.0,42988.0,20.64,16.44,14.46,21.35,26.32,19.77,0.0,0.0,0.0,0.0,0.0,0.0,75.07,24.93,2.25,0.0,0.0,0.0,4,27,4,34
GA,McIntosh,13191,-81.2646,31.5329,13.969,10.497,0.0,10.497,1.04,0.0,1.04,3.472,75.0,0.94,90.0,0.26,1.2,0.02,0.0,0.02,0.16,0.0,0.16,0.15,0.0,0.0,0.0,0.0,0.16,0.0,0.16,0.15,0.0,0.0,0.0,0.0,0.0,0.0,0.0,0.0,0.0,0.0,0.0,0.0,0.0,0.0,0.0,0.0,0.0,0.0,0.0,0.0,0.0,0.0,0.0,0.0,0.0,0.0,0.0,0.0,1.48,0.0,1.48,0.16,14007.0,42988.0,20.64,16.44,14.46,21.35,26.32,19.77,0.0,0.0,0.0,0.0,0.0,0.0,75.07,24.93,2.25,0.0,0.0,0.0,4,27,4,34
GA,McIntosh,13191,-81.2646,31.5329,13.969,10.497,0.0,10.497,1.04,0.0,1.04,3.472,75.0,0.94,90.0,0.26,1.2,0.02,0.0,0.02,0.16,0.0,0.16,0.15,0.0,0.0,0.0,0.0,0.16,0.0,0.16,0.15,0.0,0.0,0.0,0.0,0.0,0.0,0.0,0.0,0.0,0.0,0.0,0.0,0.0,0.0,0.0,0.0,0.0,0.0,0.0,0.0,0.0,0.0,0.0,0.0,0.0,0.0,0.0,0.0,1.48,0.0,1.48,0.16,14007.0,42988.0,20.64,16.44,14.46,21.35,26.32,19.77,0.0,0.0,0.0,0.0,0.0,0.0,75.07,24.93,2.25,0.0,0.0,0.0,4,27,4,34
GA,McIntosh,13191,-81.2646,31.5329,13.969,10.497,0.0,10.497,1.04,0.0,1.04,3.472,75.0,0.94,90.0,0.26,1.2,0.02,0.0,0.02,0.16,0.0,0.16,0.15,0.0,0.0,0.0,0.0,0.16,0.0,0.16,0.15,0.0,0.0,0.0,0.0,0.0,0.0,0.0,0.0,0.0,0.0,0.0,0.0,0.0,0.0,0.0,0.0,0.0,0.0,0.0,0.0,0.0,0.0,0.0,0.0,0.0,0.0,0.0,0.0,1.48,0.0,1.48,0.16,14007.0,42988.0,20.64,16.44,14.46,21.35,26.32,19.77,0.0,0.0,0.0,0.0,0.0,0.0,75.07,24.93,2.25,0.0,0.0,0.0,4,27,4,34
GA,McIntosh,13191,-81.2646,31.5329,13.969,10.497,0.0,10.497,1.04,0.0,1.04,3.472,75.0,0.94,90.0,0.26,1.2,0.02,0.0,0.02,0.16,0.0,0.16,0.15,0.0,0.0,0.0,0.0,0.16,0.0,0.16,0.15,0.0,0.0,0.0,0.0,0.0,0.0,0.0,0.0,0.0,0.0,0.0,0.0,0.0,0.0,0.0,0.0,0.0,0.0,0.0,0.0,0.0,0.0,0.0,0.0,0.0,0.0,0.0,0.0,1.48,0.0,1.48,0.16,14007.0,42988.0,20.64,16.44,14.46,21.35,26.32,19.77,0.0,0.0,0.0,0.0,0.0,0.0,75.07,24.93,2.25,0.0,0.0,0.0,4,27,4,34
GA,McIntosh,13191,-81.2646,31.5329,13.969,10.497,0.0,10.497,1.04,0.0,1.04,3.472,75.0,0.94,90.0,0.26,1.2,0.02,0.0,0.02,0.16,0.0,0.16,0.15,0.0,0.0,0.0,0.0,0.16,0.0,0.16,0.15,0.0,0.0,0.0,0.0,0.0,0.0,0.0,0.0,0.0,0.0,0.0,0.0,0.0,0.0,0.0,0.0,0.0,0.0,0.0,0.0,0.0,0.0,0.0,0.0,0.0,0.0,0.0,0.0,1.48,0.0,1.48,0.16,14007.0,42988.0,20.64,16.44,14.46,21.35,26.32,19.77,0.0,0.0,0.0,0.0,0.0,0.0,75.07,24.93,2.25,0.0,0.0,0.0,4,27,4,34
GA,McIntosh,13191,-81.2646,31.5329,13.969,10.497,0.0,10.497,1.04,0.0,1.04,3.472,75.0,0.94,90.0,0.26,1.2,0.02,0.0,0.02,0.16,0.0,0.16,0.15,0.0,0.0,0.0,0.0,0.16,0.0,0.16,0.15,0.0,0.0,0.0,0.0,0.0,0.0,0.0,0.0,0.0,0.0,0.0,0.0,0.0,0.0,0.0,0.0,0.0,0.0,0.0,0.0,0.0,0.0,0.0,0.0,0.0,0.0,0.0,0.0,1.48,0.0,1.48,0.16,14007.0,42988.0,20.64,16.44,14.46,21.35,26.32,19.77,0.0,0.0,0.0,0.0,0.0,0.0,75.07,24.93,2.25,0.0,0.0,0.0,4,27,4,34
GA,McIntosh,13191,-81.2646,31.5329,13.969,10.497,0.0,10.497,1.04,0.0,1.04,3.472,75.0,0.94,90.0,0.26,1.2,0.02,0.0,0.02,0.16,0.0,0.16,0.15,0.0,0.0,0.0,0.0,0.16,0.0,0.16,0.15,0.0,0.0,0.0,0.0,0.0,0.0,0.0,0.0,0.0,0.0,0.0,0.0,0.0,0.0,0.0,0.0,0.0,0.0,0.0,0.0,0.0,0.0,0.0,0.0,0.0,0.0,0.0,0.0,1.48,0.0,1.48,0.16,14007.0,42988.0,20.64,16.44,14.46,21.35,26.32,19.77,0.0,0.0,0.0,0.0,0.0,0.0,75.07,24.93,2.25,0.0,0.0,0.0,4,27,4,34
GA,McIntosh,13191,-81.2646,31.5329,13.969,10.497,0.0,10.497,1.04,0.0,1.04,3.472,75.0,0.94,90.0,0.26,1.2,0.02,0.0,0.02,0.16,0.0,0.16,0.15,0.0,0.0,0.0,0.0,0.16,0.0,0.16,0.15,0.0,0.0,0.0,0.0,0.0,0.0,0.0,0.0,0.0,0.0,0.0,0.0,0.0,0.0,0.0,0.0,0.0,0.0,0.0,0.0,0.0,0.0,0.0,0.0,0.0,0.0,0.0,0.0,1.48,0.0,1.48,0.16,14007.0,42988.0,20.64,16.44,14.46,21.35,26.32,19.77,0.0,0.0,0.0,0.0,0.0,0.0,75.07,24.93,2.25,0.0,0.0,0.0,4,27,4,34
GA,McIntosh,13191,-81.2646,31.5329,13.969,10.497,0.0,10.497,1.04,0.0,1.04,3.472,75.0,0.94,90.0,0.26,1.2,0.02,0.0,0.02,0.16,0.0,0.16,0.15,0.0,0.0,0.0,0.0,0.16,0.0,0.16,0.15,0.0,0.0,0.0,0.0,0.0,0.0,0.0,0.0,0.0,0.0,0.0,0.0,0.0,0.0,0.0,0.0,0.0,0.0,0.0,0.0,0.0,0.0,0.0,0.0,0.0,0.0,0.0,0.0,1.48,0.0,1.48,0.16,14007.0,42988.0,20.64,16.44,14.46,21.35,26.32,19.77,0.0,0.0,0.0,0.0,0.0,0.0,75.07,24.93,2.25,0.0,0.0,0.0,4,27,4,34
GA,McIntosh,13191,-81.2646,31.5329,13.969,10.497,0.0,10.497,1.04,0.0,1.04,3.472,75.0,0.94,90.0,0.26,1.2,0.02,0.0,0.02,0.16,0.0,0.16,0.15,0.0,0.0,0.0,0.0,0.16,0.0,0.16,0.15,0.0,0.0,0.0,0.0,0.0,0.0,0.0,0.0,0.0,0.0,0.0,0.0,0.0,0.0,0.0,0.0,0.0,0.0,0.0,0.0,0.0,0.0,0.0,0.0,0.0,0.0,0.0,0.0,1.48,0.0,1.48,0.16,14007.0,42988.0,20.64,16.44,14.46,21.35,26.32,19.77,0.0,0.0,0.0,0.0,0.0,0.0,75.07,24.93,2.25,0.0,0.0,0.0,4,27,4,34
GA,McIntosh,13191,-81.2646,31.5329,13.969,10.497,0.0,10.497,1.04,0.0,1.04,3.472,75.0,0.94,90.0,0.26,1.2,0.02,0.0,0.02,0.16,0.0,0.16,0.15,0.0,0.0,0.0,0.0,0.16,0.0,0.16,0.15,0.0,0.0,0.0,0.0,0.0,0.0,0.0,0.0,0.0,0.0,0.0,0.0,0.0,0.0,0.0,0.0,0.0,0.0,0.0,0.0,0.0,0.0,0.0,0.0,0.0,0.0,0.0,0.0,1.48,0.0,1.48,0.16,14007.0,42988.0,20.64,16.44,14.46,21.35,26.32,19.77,0.0,0.0,0.0,0.0,0.0,0.0,75.07,24.93,2.25,0.0,0.0,0.0,4,27,4,34
GA,McIntosh,13191,-81.2646,31.5329,13.969,10.497,0.0,10.497,1.04,0.0,1.04,3.472,75.0,0.94,90.0,0.26,1.2,0.02,0.0,0.02,0.16,0.0,0.16,0.15,0.0,0.0,0.0,0.0,0.16,0.0,0.16,0.15,0.0,0.0,0.0,0.0,0.0,0.0,0.0,0.0,0.0,0.0,0.0,0.0,0.0,0.0,0.0,0.0,0.0,0.0,0.0,0.0,0.0,0.0,0.0,0.0,0.0,0.0,0.0,0.0,1.48,0.0,1.48,0.16,14007.0,42988.0,20.64,16.44,14.46,21.35,26.32,19.77,0.0,0.0,0.0,0.0,0.0,0.0,75.07,24.93,2.25,0.0,0.0,0.0,4,27,4,34
GA,Liberty,13179,-81.2103,31.7093,62.467,51.264,0.0,51.264,6.42,0.0,6.42,11.203,75.0,3.18,62.0,0.84,4.02,10.43,0.63,11.06,0.0,0.0,0.0,0.0,0.0,0.0,0.0,0.0,0.0,0.0,0.0,0.0,0.02,0.0,0.0,0.0,0.03,0.09,0.12,0.0,0.0,0.0,0.0,0.0,0.0,0.0,0.0,0.0,0.0,0.0,0.0,0.0,0.0,0.0,0.0,0.0,0.0,0.0,0.0,0.0,17.72,0.74,18.46,0.0,64427.0,42201.0,20.14,15.37,14.95,20.68,25.22,19.19,0.0,0.0,0.0,0.0,0.0,0.0,84.02,15.98,0.21,0.0,0.0,0.0,36,27,31,1
GA,Liberty,13179,-81.2103,31.7093,62.467,51.264,0.0,51.264,6.42,0.0,6.42,11.203,75.0,3.18,62.0,0.84,4.02,10.43,0.63,11.06,0.0,0.0,0.0,0.0,0.0,0.0,0.0,0.0,0.0,0.0,0.0,0.0,0.02,0.0,0.0,0.0,0.03,0.09,0.12,0.0,0.0,0.0,0.0,0.0,0.0,0.0,0.0,0.0,0.0,0.0,0.0,0.0,0.0,0.0,0.0,0.0,0.0,0.0,0.0,0.0,17.72,0.74,18.46,0.0,64427.0,42201.0,20.14,15.37,14.95,20.68,25.22,19.19,0.0,0.0,0.0,0.0,0.0,0.0,84.02,15.98,0.21,0.0,0.0,0.0,36,27,31,1
GA,Liberty,13179,-81.2103,31.7093,62.467,51.264,0.0,51.264,6.42,0.0,6.42,11.203,75.0,3.18,62.0,0.84,4.02,10.43,0.63,11.06,0.0,0.0,0.0,0.0,0.0,0.0,0.0,0.0,0.0,0.0,0.0,0.0,0.02,0.0,0.0,0.0,0.03,0.09,0.12,0.0,0.0,0.0,0.0,0.0,0.0,0.0,0.0,0.0,0.0,0.0,0.0,0.0,0.0,0.0,0.0,0.0,0.0,0.0,0.0,0.0,17.72,0.74,18.46,0.0,64427.0,42201.0,20.14,15.37,14.95,20.68,25.22,19.19,0.0,0.0,0.0,0.0,0.0,0.0,84.02,15.98,0.21,0.0,0.0,0.0,36,27,31,1
GA,Liberty,13179,-81.2103,31.7093,62.467,51.264,0.0,51.264,6.42,0.0,6.42,11.203,75.0,3.18,62.0,0.84,4.02,10.43,0.63,11.06,0.0,0.0,0.0,0.0,0.0,0.0,0.0,0.0,0.0,0.0,0.0,0.0,0.02,0.0,0.0,0.0,0.03,0.09,0.12,0.0,0.0,0.0,0.0,0.0,0.0,0.0,0.0,0.0,0.0,0.0,0.0,0.0,0.0,0.0,0.0,0.0,0.0,0.0,0.0,0.0,17.72,0.74,18.46,0.0,64427.0,42201.0,20.14,15.37,14.95,20.68,25.22,19.19,0.0,0.0,0.0,0.0,0.0,0.0,84.02,15.98,0.21,0.0,0.0,0.0,36,27,31,1
GA,Liberty,13179,-81.2103,31.7093,62.467,51.264,0.0,51.264,6.42,0.0,6.42,11.203,75.0,3.18,62.0,0.84,4.02,10.43,0.63,11.06,0.0,0.0,0.0,0.0,0.0,0.0,0.0,0.0,0.0,0.0,0.0,0.0,0.02,0.0,0.0,0.0,0.03,0.09,0.12,0.0,0.0,0.0,0.0,0.0,0.0,0.0,0.0,0.0,0.0,0.0,0.0,0.0,0.0,0.0,0.0,0.0,0.0,0.0,0.0,0.0,17.72,0.74,18.46,0.0,64427.0,42201.0,20.14,15.37,14.95,20.68,25.22,19.19,0.0,0.0,0.0,0.0,0.0,0.0,84.02,15.98,0.21,0.0,0.0,0.0,36,27,31,1
GA,Liberty,13179,-81.2103,31.7093,62.467,51.264,0.0,51.264,6.42,0.0,6.42,11.203,75.0,3.18,62.0,0.84,4.02,10.43,0.63,11.06,0.0,0.0,0.0,0.0,0.0,0.0,0.0,0.0,0.0,0.0,0.0,0.0,0.02,0.0,0.0,0.0,0.03,0.09,0.12,0.0,0.0,0.0,0.0,0.0,0.0,0.0,0.0,0.0,0.0,0.0,0.0,0.0,0.0,0.0,0.0,0.0,0.0,0.0,0.0,0.0,17.72,0.74,18.46,0.0,64427.0,42201.0,20.14,15.37,14.95,20.68,25.22,19.19,0.0,0.0,0.0,0.0,0.0,0.0,84.02,15.98,0.21,0.0,0.0,0.0,36,27,31,1
GA,Liberty,13179,-81.2103,31.7093,62.467,51.264,0.0,51.264,6.42,0.0,6.42,11.203,75.0,3.18,62.0,0.84,4.02,10.43,0.63,11.06,0.0,0.0,0.0,0.0,0.0,0.0,0.0,0.0,0.0,0.0,0.0,0.0,0.02,0.0,0.0,0.0,0.03,0.09,0.12,0.0,0.0,0.0,0.0,0.0,0.0,0.0,0.0,0.0,0.0,0.0,0.0,0.0,0.0,0.0,0.0,0.0,0.0,0.0,0.0,0.0,17.72,0.74,18.46,0.0,64427.0,42201.0,20.14,15.37,14.95,20.68,25.22,19.19,0.0,0.0,0.0,0.0,0.0,0.0,84.02,15.98,0.21,0.0,0.0,0.0,36,27,31,1
GA,Liberty,13179,-81.2103,31.7093,62.467,51.264,0.0,51.264,6.42,0.0,6.42,11.203,75.0,3.18,62.0,0.84,4.02,10.43,0.63,11.06,0.0,0.0,0.0,0.0,0.0,0.0,0.0,0.0,0.0,0.0,0.0,0.0,0.02,0.0,0.0,0.0,0.03,0.09,0.12,0.0,0.0,0.0,0.0,0.0,0.0,0.0,0.0,0.0,0.0,0.0,0.0,0.0,0.0,0.0,0.0,0.0,0.0,0.0,0.0,0.0,17.72,0.74,18.46,0.0,64427.0,42201.0,20.14,15.37,14.95,20.68,25.22,19.19,0.0,0.0,0.0,0.0,0.0,0.0,84.02,15.98,0.21,0.0,0.0,0.0,36,27,31,1
GA,Liberty,13179,-81.2103,31.7093,62.467,51.264,0.0,51.264,6.42,0.0,6.42,11.203,75.0,3.18,62.0,0.84,4.02,10.43,0.63,11.06,0.0,0.0,0.0,0.0,0.0,0.0,0.0,0.0,0.0,0.0,0.0,0.0,0.02,0.0,0.0,0.0,0.03,0.09,0.12,0.0,0.0,0.0,0.0,0.0,0.0,0.0,0.0,0.0,0.0,0.0,0.0,0.0,0.0,0.0,0.0,0.0,0.0,0.0,0.0,0.0,17.72,0.74,18.46,0.0,64427.0,42201.0,20.14,15.37,14.95,20.68,25.22,19.19,0.0,0.0,0.0,0.0,0.0,0.0,84.02,15.98,0.21,0.0,0.0,0.0,36,27,31,1
GA,Liberty,13179,-81.2103,31.7093,62.467,51.264,0.0,51.264,6.42,0.0,6.42,11.203,75.0,3.18,62.0,0.84,4.02,10.43,0.63,11.06,0.0,0.0,0.0,0.0,0.0,0.0,0.0,0.0,0.0,0.0,0.0,0.0,0.02,0.0,0.0,0.0,0.03,0.09,0.12,0.0,0.0,0.0,0.0,0.0,0.0,0.0,0.0,0.0,0.0,0.0,0.0,0.0,0.0,0.0,0.0,0.0,0.0,0.0,0.0,0.0,17.72,0.74,18.46,0.0,64427.0,42201.0,20.14,15.37,14.95,20.68,25.22,19.19,0.0,0.0,0.0,0.0,0.0,0.0,84.02,15.98,0.21,0.0,0.0,0.0,36,27,31,1
GA,Liberty,13179,-81.2103,31.7093,62.467,51.264,0.0,51.264,6.42,0.0,6.42,11.203,75.0,3.18,62.0,0.84,4.02,10.43,0.63,11.06,0.0,0.0,0.0,0.0,0.0,0.0,0.0,0.0,0.0,0.0,0.0,0.0,0.02,0.0,0.0,0.0,0.03,0.09,0.12,0.0,0.0,0.0,0.0,0.0,0.0,0.0,0.0,0.0,0.0,0.0,0.0,0.0,0.0,0.0,0.0,0.0,0.0,0.0,0.0,0.0,17.72,0.74,18.46,0.0,64427.0,42201.0,20.14,15.37,14.95,20.68,25.22,19.19,0.0,0.0,0.0,0.0,0.0,0.0,84.02,15.98,0.21,0.0,0.0,0.0,36,27,31,1
GA,Liberty,13179,-81.2103,31.7093,62.467,51.264,0.0,51.264,6.42,0.0,6.42,11.203,75.0,3.18,62.0,0.84,4.02,10.43,0.63,11.06,0.0,0.0,0.0,0.0,0.0,0.0,0.0,0.0,0.0,0.0,0.0,0.0,0.02,0.0,0.0,0.0,0.03,0.09,0.12,0.0,0.0,0.0,0.0,0.0,0.0,0.0,0.0,0.0,0.0,0.0,0.0,0.0,0.0,0.0,0.0,0.0,0.0,0.0,0.0,0.0,17.72,0.74,18.46,0.0,64427.0,42201.0,20.14,15.37,14.95,20.68,25.22,19.19,0.0,0.0,0.0,0.0,0.0,0.0,84.02,15.98,0.21,0.0,0.0,0.0,36,27,31,1
GA,Liberty,13179,-81.2103,31.7093,62.467,51.264,0.0,51.264,6.42,0.0,6.42,11.203,75.0,3.18,62.0,0.84,4.02,10.43,0.63,11.06,0.0,0.0,0.0,0.0,0.0,0.0,0.0,0.0,0.0,0.0,0.0,0.0,0.02,0.0,0.0,0.0,0.03,0.09,0.12,0.0,0.0,0.0,0.0,0.0,0.0,0.0,0.0,0.0,0.0,0.0,0.0,0.0,0.0,0.0,0.0,0.0,0.0,0.0,0.0,0.0,17.72,0.74,18.46,0.0,64427.0,42201.0,20.14,15.37,14.95,20.68,25.22,19.19,0.0,0.0,0.0,0.0,0.0,0.0,84.02,15.98,0.21,0.0,0.0,0.0,36,27,31,1
GA,Liberty,13179,-81.2103,31.7093,62.467,51.264,0.0,51.264,6.42,0.0,6.42,11.203,75.0,3.18,62.0,0.84,4.02,10.43,0.63,11.06,0.0,0.0,0.0,0.0,0.0,0.0,0.0,0.0,0.0,0.0,0.0,0.0,0.02,0.0,0.0,0.0,0.03,0.09,0.12,0.0,0.0,0.0,0.0,0.0,0.0,0.0,0.0,0.0,0.0,0.0,0.0,0.0,0.0,0.0,0.0,0.0,0.0,0.0,0.0,0.0,17.72,0.74,18.46,0.0,64427.0,42201.0,20.14,15.37,14.95,20.68,25.22,19.19,0.0,0.0,0.0,0.0,0.0,0.0,84.02,15.98,0.21,0.0,0.0,0.0,36,27,31,1
GA,Liberty,13179,-81.2103,31.7093,62.467,51.264,0.0,51.264,6.42,0.0,6.42,11.203,75.0,3.18,62.0,0.84,4.02,10.43,0.63,11.06,0.0,0.0,0.0,0.0,0.0,0.0,0.0,0.0,0.0,0.0,0.0,0.0,0.02,0.0,0.0,0.0,0.03,0.09,0.12,0.0,0.0,0.0,0.0,0.0,0.0,0.0,0.0,0.0,0.0,0.0,0.0,0.0,0.0,0.0,0.0,0.0,0.0,0.0,0.0,0.0,17.72,0.74,18.46,0.0,64427.0,42201.0,20.14,15.37,14.95,20.68,25.22,19.19,0.0,0.0,0.0,0.0,0.0,0.0,84.02,15.98,0.21,0.0,0.0,0.0,36,27,31,1
GA,Liberty,13179,-81.2103,31.7093,62.467,51.264,0.0,51.264,6.42,0.0,6.42,11.203,75.0,3.18,62.0,0.84,4.02,10.43,0.63,11.06,0.0,0.0,0.0,0.0,0.0,0.0,0.0,0.0,0.0,0.0,0.0,0.0,0.02,0.0,0.0,0.0,0.03,0.09,0.12,0.0,0.0,0.0,0.0,0.0,0.0,0.0,0.0,0.0,0.0,0.0,0.0,0.0,0.0,0.0,0.0,0.0,0.0,0.0,0.0,0.0,17.72,0.74,18.46,0.0,64427.0,42201.0,20.14,15.37,14.95,20.68,25.22,19.19,0.0,0.0,0.0,0.0,0.0,0.0,84.02,15.98,0.21,0.0,0.0,0.0,36,27,31,1
CT,Hartford,9003,-72.7328,41.8064,895.841,78.563,671.826,750.389,12.78,46.44,59.22,145.452,34.0,25.29,34.0,4.9,30.19,9.02,97.25,106.27,4.09,0.0,3.9,7.09,2.41,0.0,2.3,4.95,1.68,0.0,1.6,2.14,0.07,0.79,12.96,13.75,0.11,0.48,0.59,0.0,71.56,71.56,0.0,0.43,0.98,614.78,0.0,71.56,71.56,0.0,0.0,0.67,421.59,0.0,0.0,0.0,0.0,0.43,0.31,193.19,28.24,232.21,260.45,4.88,896943.0,66395.0,10.22,4.46,3.57,9.94,10.56,9.3,0.0,0.0,0.0,0.0,0.0,0.0,39.7,60.3,30.55,0.0,0.0,0.0,35,38,45,26
CT,Tolland,9013,-72.3365,41.855,151.42,45.125,46.224,91.349,3.29,1.64,4.93,60.071,42.0,3.83,42.0,2.52,6.35,0.47,0.53,1.0,0.5,0.0,0.47,0.8,0.23,0.0,0.21,0.45,0.27,0.0,0.26,0.35,0.18,0.0,0.0,0.0,0.09,0.45,0.54,0.0,0.0,0.0,0.0,0.0,0.0,0.0,0.0,0.0,0.0,0.0,0.0,0.0,0.0,0.0,0.0,0.0,0.0,0.0,0.0,0.0,6.83,2.84,9.67,0.47,151948.0,79626.0,9.85,4.09,2.84,9.55,10.03,8.88,0.0,0.0,0.0,0.0,0.0,0.0,40.99,59.01,29.4,0.0,0.0,0.0,36,0,4,25
CT,Windham,9015,-71.9875,41.8299,116.573,25.175,27.473,52.648,5.76,1.95,7.71,63.925,48.0,2.5,47.0,3.04,5.54,1.99,5.06,7.05,0.56,0.0,0.52,0.82,0.32,0.0,0.29,0.52,0.24,0.0,0.23,0.3,0.21,7.2,0.0,7.2,0.25,0.97,1.22,0.0,0.43,0.43,0.0,0.0,0.31,190.77,0.0,0.0,0.0,0.0,0.0,0.0,0.0,0.0,0.43,0.43,0.0,0.0,0.31,190.77,18.7,8.72,27.42,0.83,117470.0,59392.0,10.02,4.38,2.85,9.73,10.29,9.04,0.0,0.0,0.0,0.0,0.0,0.0,40.13,59.87,29.24,0.0,0.0,0.0,36,27,31,23
MA,Nantucket,25019,-70.0744,41.2781,10.925,8.3,0.0,8.3,2.0,0.0,2.0,2.625,95.0,0.79,95.0,0.25,1.04,0.0,0.0,0.0,1.2,0.0,0.23,0.37,1.09,0.0,0.13,0.16,0.11,0.0,0.1,0.21,0.0,0.0,0.0,0.0,0.0,0.0,0.0,0.0,0.0,0.0,0.0,0.0,0.0,0.0,0.0,0.0,0.0,0.0,0.0,0.0,0.0,0.0,0.0,0.0,0.0,0.0,0.0,0.0,3.27,0.18,3.45,0.23,10556.0,84057.0,9.807692307692308,4.556153846153847,1.755384615384615,9.516923076923076,10.135384615384616,8.973846153846154,3.0,3.0,3.0,3.0,3.0,3.0,46.15,53.85,13.46,0.0,0.0,0.0,4,27,4,12
MD,Garrett,24023,-79.2739,39.5286,29.46,5.902,3.342,9.244,0.92,1.82,2.74,20.216,80.0,1.17,127.0,1.62,2.79,0.02,0.45,0.47,0.0,0.0,0.0,0.04,0.0,0.0,0.0,0.04,0.0,0.0,0.0,0.0,0.34,0.0,1.62,1.62,0.11,1.45,1.56,0.0,0.0,0.0,0.0,0.0,0.0,0.0,0.0,0.0,0.0,0.0,0.0,0.0,0.0,0.0,0.0,0.0,0.0,0.0,0.0,0.0,2.81,5.54,8.35,0.0,29813.0,45432.0,9.12,4.88,1.69,8.84,9.48,8.64,0.0,0.0,0.0,0.0,0.0,0.0,67.09,32.91,0.0,0.0,0.0,0.0,4,27,4,34
VT,Windsor,50027,-72.5855,43.5798,55.737,33.288,1.5,34.788,3.04,0.06,3.1,20.949,43.0,1.51,43.0,0.91,2.42,0.3,0.01,0.31,0.26,0.0,0.25,0.51,0.07,0.0,0.07,0.24,0.19,0.0,0.18,0.27,0.17,0.72,0.0,0.72,0.22,0.54,0.76,0.0,0.0,0.0,0.0,0.0,0.0,0.0,0.0,0.0,0.0,0.0,0.0,0.0,0.0,0.0,0.0,0.0,0.0,0.0,0.0,0.0,5.36,0.87,6.23,0.25,56150.0,52965.0,6.66,1.65,-0.38,6.36,6.12,6.02,0.0,0.0,0.0,0.0,0.0,0.0,64.23,35.77,5.2,0.0,0.0,0.0,36,27,4,4
NH,Sullivan,33019,-72.2223,43.3612,42.967,8.806,15.64,24.446,0.92,1.79,2.71,18.521,60.0,1.47,60.0,1.12,2.59,0.06,0.32,0.38,0.11,0.0,0.11,0.24,0.03,0.0,0.03,0.06,0.08,0.0,0.08,0.18,0.12,0.0,0.28,0.28,0.0,0.52,0.52,0.0,0.0,0.0,0.0,0.0,0.0,140.52,0.0,0.0,0.0,0.0,0.0,0.0,0.0,0.0,0.0,0.0,0.0,0.0,0.0,140.52,2.21,3.03,5.24,0.11,43135.0,56032.0,7.01,1.62,-0.01,6.68,6.42,6.24,0.0,0.0,0.0,0.0,0.0,0.0,63.53,36.47,10.37,0.0,0.0,0.0,4,27,4,22
NH,Belknap,33001,-71.4233,43.5188,60.641,15.248,19.05,34.298,1.35,1.77,3.12,26.343,46.0,1.59,46.0,1.22,2.81,0.06,0.24,0.3,0.41,0.0,0.39,0.6,0.15,0.0,0.14,0.3,0.26,0.0,0.25,0.3,0.03,1.05,1.8,2.85,0.0,0.56,0.56,0.0,0.0,0.0,0.0,0.0,0.0,0.0,0.0,0.0,0.0,0.0,0.0,0.0,0.0,0.0,0.0,0.0,0.0,0.0,0.0,0.0,3.8,4.69,8.49,0.39,60399.0,62159.0,7.49,2.09,0.49,7.17,7.05,6.71,0.0,0.0,0.0,0.0,0.0,0.0,60.9,39.1,14.66,0.0,0.0,0.0,36,27,4,10
NH,Cheshire,33005,-72.2512,42.9193,75.909,15.522,24.895,40.417,2.49,1.63,4.12,35.492,53.0,2.12,52.0,1.87,3.99,0.27,0.14,0.41,0.21,0.0,0.2,0.39,0.04,0.0,0.04,0.1,0.17,0.0,0.16,0.29,0.11,0.0,0.0,0.0,0.0,0.25,0.25,0.31,0.01,0.32,0.0,0.0,0.21,0.0,0.0,0.0,0.0,0.0,0.0,0.0,0.0,0.31,0.01,0.32,0.0,0.0,0.21,0.0,5.05,2.24,7.29,0.41,76430.0,57782.0,7.94,2.27,0.9,7.6,7.53,7.03,0.0,0.0,0.0,0.0,0.0,0.0,57.24,42.76,11.54,0.0,0.0,0.0,36,27,4,22
NH,Strafford,33017,-71.0293,43.2975,126.825,38.081,52.912,90.993,3.74,4.26,8.0,35.832,57.0,5.17,57.0,2.03,7.2,0.41,0.27,0.68,0.38,0.0,0.35,0.6,0.09,0.0,0.08,0.29,0.29,0.0,0.27,0.31,0.04,0.0,6.22,6.22,0.0,0.21,0.21,0.0,0.0,0.0,0.0,0.0,0.0,0.0,0.0,0.0,0.0,0.0,0.0,0.0,0.0,0.0,0.0,0.0,0.0,0.0,0.0,0.0,6.26,11.3,17.56,0.35,125273.0,60711.0,8.7,3.3,1.37,8.41,8.69,7.92,0.0,0.0,0.0,0.0,0.0,0.0,34.31,65.69,37.99,0.0,0.0,0.0,23,0,31,23
NY,Yates,36123,-77.1055,42.6335,25.048,0.0,14.088,14.088,0.19,0.91,1.1,10.96,75.0,1.06,75.0,0.82,1.88,0.0,0.08,0.08,0.38,0.0,0.36,0.65,0.36,0.0,0.34,0.59,0.02,0.0,0.02,0.06,0.61,0.0,0.0,0.0,0.02,0.07,0.09,0.0,0.0,0.0,0.0,0.0,0.0,0.0,0.0,0.0,0.0,0.0,0.0,0.0,0.0,0.0,0.0,0.0,0.0,0.0,0.0,0.0,1.47,1.61,3.08,0.36,25187.0,49510.0,8.56,3.72,1.2,8.28,8.6,7.86,0.0,0.0,0.0,0.0,0.0,0.0,59.18,40.82,0.0,0.0,0.0,0.0,4,27,4,40
NY,Allegany,36003,-78.0276,42.2574,47.462,18.293,9.559,27.852,2.17,0.95,3.12,19.61,75.0,2.09,75.0,1.47,3.56,0.56,0.0,0.56,0.23,0.0,0.22,0.5,0.05,0.0,0.05,0.1,0.18,0.0,0.17,0.4,0.42,0.0,0.0,0.0,0.09,0.25,0.34,0.0,0.16,0.16,0.0,0.0,0.03,106.33,0.0,0.0,0.0,0.0,0.0,0.0,0.0,0.0,0.16,0.16,0.0,0.0,0.03,106.33,4.59,1.71,6.3,0.25,48070.0,42776.0,7.4,2.93,-0.47,7.1,7.13,6.83,0.0,0.0,0.0,0.0,0.0,0.0,81.96,18.04,0.0,0.0,0.0,0.0,36,27,4,1
NY,Broome,36007,-75.8196,42.1602,196.567,97.626,44.998,142.624,12.53,6.2,18.73,53.943,75.0,10.7,75.0,4.05,14.75,0.0,0.0,0.0,0.45,0.0,0.43,1.14,0.07,0.0,0.07,0.15,0.38,0.0,0.36,0.99,0.25,0.0,0.0,0.0,0.13,0.0,0.13,0.0,0.0,0.0,0.0,0.0,0.0,0.0,0.0,0.0,0.0,0.0,0.0,0.0,0.0,0.0,0.0,0.0,0.0,0.0,0.0,0.0,16.92,6.69,23.61,0.43,198093.0,46261.0,8.51,3.22,1.35,8.2,8.37,7.66,0.0,0.0,0.0,0.0,0.0,0.0,94.73,5.27,0.0,0.0,0.0,0.0,16,0,39,32
NY,Cattaraugus,36009,-78.6789,42.2486,77.922,42.217,7.096,49.313,7.85,1.6,9.45,28.609,75.0,3.7,75.0,2.15,5.85,0.3,0.0,0.3,0.59,0.0,0.56,1.36,0.41,0.0,0.39,0.93,0.18,0.0,0.17,0.43,0.64,0.0,2.71,2.71,0.54,1.26,1.8,0.97,0.0,0.97,0.0,0.0,0.69,386.52,0.0,0.0,0.0,0.0,0.0,0.0,0.0,0.97,0.0,0.97,0.0,0.0,0.69,386.52,12.3,6.31,18.61,1.25,78962.0,42601.0,7.59,3.36,-0.28,7.31,7.48,7.1,0.0,0.0,0.0,0.0,0.0,0.0,91.97,8.03,0.0,0.0,0.0,0.0,26,27,31,1
NY,Chemung,36015,-76.76,42.1413,87.071,25.777,21.555,47.332,4.71,3.66,8.37,39.739,75.0,3.55,75.0,2.98,6.53,0.58,0.0,0.58,0.14,0.0,0.14,0.33,0.07,0.0,0.07,0.16,0.07,0.0,0.07,0.17,0.09,0.0,0.0,0.0,0.0,0.42,0.42,0.0,0.0,0.0,0.0,0.0,0.0,0.0,0.0,0.0,0.0,0.0,0.0,0.0,0.0,0.0,0.0,0.0,0.0,0.0,0.0,0.0,8.35,4.23,12.58,0.14,88267.0,50320.0,8.6,3.33,1.53,8.3,8.5,7.75,0.0,0.0,0.0,0.0,0.0,0.0,91.8,8.2,0.0,0.0,0.0,0.0,26,27,31,39
NY,Chenango,36017,-75.6115,42.4936,48.844,22.345,6.098,28.443,1.82,0.4,2.22,20.401,75.0,2.13,75.0,1.53,3.66,1.07,0.0,1.07,0.29,0.0,0.28,0.54,0.08,0.0,0.08,0.2,0.21,0.0,0.2,0.34,0.49,0.25,1.25,1.5,0.0,0.72,0.72,0.0,0.0,0.0,0.0,0.0,0.0,0.0,0.0,0.0,0.0,0.0,0.0,0.0,0.0,0.0,0.0,0.0,0.0,0.0,0.0,0.0,5.04,2.78,7.82,0.28,49549.0,45668.0,7.65,2.77,0.2,7.35,7.37,6.95,0.0,0.0,0.0,0.0,0.0,0.0,99.68,0.32,0.0,0.0,0.0,0.0,36,27,4,34
NY,Cortland,36023,-76.0702,42.595,48.494,38.051,0.0,38.051,3.8,0.0,3.8,10.443,75.0,2.85,75.0,0.78,3.63,0.12,0.0,0.12,0.19,0.0,0.18,0.53,0.11,0.0,0.1,0.19,0.08,0.0,0.08,0.34,0.41,0.0,0.0,0.0,0.0,0.39,0.39,0.0,0.0,0.0,0.0,0.0,0.0,0.0,0.0,0.0,0.0,0.0,0.0,0.0,0.0,0.0,0.0,0.0,0.0,0.0,0.0,0.0,4.99,0.7,5.69,0.18,49043.0,49514.0,7.59,2.95,0.1,7.29,7.36,6.96,0.0,0.0,0.0,0.0,0.0,0.0,89.23,10.77,0.0,0.0,0.0,0.0,36,27,4,40
NY,Delaware,36025,-74.9664,42.1982,46.053,31.162,0.0,31.162,2.19,403.35,405.54,14.891,75.0,2.34,75.0,1.12,3.46,2.12,0.0,2.12,0.29,0.0,0.28,0.5,0.07,0.0,0.07,0.16,0.22,0.0,0.21,0.34,0.38,0.12,0.29,0.41,0.01,0.25,0.26,0.0,0.0,0.0,0.0,0.0,0.0,0.0,0.0,0.0,0.0,0.0,0.0,0.0,0.0,0.0,0.0,0.0,0.0,0.0,0.0,0.0,5.86,404.26,410.12,0.28,46901.0,43720.0,7.21,2.41,-0.39,6.89,6.8,6.57,0.0,0.0,0.0,0.0,0.0,0.0,81.2,18.8,0.04,0.0,0.0,0.0,7,27,7,34
NY,Genesee,36037,-78.1936,43.001,58.937,30.849,10.0,40.849,2.01,1.73,3.74,18.088,75.0,3.06,75.0,1.36,4.42,6.79,0.64,7.43,2.92,0.0,2.77,6.78,2.78,0.0,2.64,6.35,0.14,0.0,0.13,0.43,1.12,0.0,0.0,0.0,0.0,0.94,0.94,0.1,0.0,0.1,0.0,0.0,0.07,34.21,0.0,0.0,0.0,0.0,0.0,0.0,0.0,0.1,0.0,0.1,0.0,0.0,0.07,34.21,11.36,6.25,17.61,2.84,59458.0,50880.0,8.68,3.56,0.97,8.38,8.66,7.88,0.0,0.0,0.0,0.0,0.0,0.0,62.8,37.2,0.21,0.0,0.0,0.0,36,27,4,40
NY,Hamilton,36041,-74.4974,43.6611,4.712,1.158,1.318,2.476,0.42,0.33,0.75,2.236,76.0,0.19,77.0,0.17,0.36,0.0,0.0,0.0,0.08,0.0,0.08,0.17,0.0,0.0,0.0,0.0,0.08,0.0,0.08,0.17,0.0,0.0,0.0,0.0,0.0,0.0,0.0,0.0,0.0,0.0,0.0,0.0,0.0,0.0,0.0,0.0,0.0,0.0,0.0,0.0,0.0,0.0,0.0,0.0,0.0,0.0,0.0,0.0,0.6,0.4,1.0,0.08,4760.0,48243.0,5.77,1.29,-2.07,5.48,5.08,5.27,0.0,0.0,0.0,0.0,0.0,0.0,52.9,47.1,0.01,0.0,0.0,0.0,4,27,4,11
NY,Lewis,36049,-75.4488,43.7847,26.957,17.372,0.0,17.372,0.85,0.96,1.81,9.585,75.0,1.3,75.0,0.72,2.02,0.02,1.22,1.24,0.15,0.0,0.15,0.34,0.05,0.0,0.05,0.11,0.1,0.0,0.1,0.23,1.0,0.0,0.0,0.0,0.0,0.06,0.06,0.0,1.31,1.31,0.0,0.0,0.18,135.11,0.0,1.08,1.08,0.0,0.0,0.01,2.97,0.0,0.23,0.23,0.0,0.0,0.17,132.14,2.26,4.03,6.29,0.33,27124.0,49819.0,6.57,2.36,-1.22,6.3,6.25,6.15,0.0,0.0,0.0,0.0,0.0,0.0,44.44,55.56,2.46,0.0,0.0,0.0,4,27,4,40
NY,Livingston,36051,-77.7754,42.728,64.717,1.264,49.513,50.777,0.49,3.29,3.78,13.94,75.0,3.81,75.0,1.05,4.86,0.35,0.11,0.46,0.3,0.0,0.29,0.84,0.1,0.0,0.1,0.24,0.2,0.0,0.19,0.6,0.8,0.76,7.18,7.94,0.86,1.05,1.91,0.0,0.0,0.0,0.0,0.0,0.0,0.0,0.0,0.0,0.0,0.0,0.0,0.0,0.0,0.0,0.0,0.0,0.0,0.0,0.0,0.0,4.06,12.18,16.24,0.29,64801.0,51734.0,8.41,3.5,0.96,8.12,8.38,7.68,0.0,0.0,0.0,0.0,0.0,0.0,60.16,39.84,0.0,0.0,0.0,0.0,36,27,4,4
NY,Madison,36053,-75.6697,42.9129,71.849,53.538,0.0,53.538,1.22,0.0,1.22,18.311,75.0,4.02,75.0,1.37,5.39,0.0,0.0,0.0,0.82,0.0,0.78,1.58,0.35,0.0,0.33,0.81,0.47,0.0,0.45,0.77,0.77,0.11,0.0,0.11,0.02,0.07,0.09,0.0,0.0,0.0,0.0,0.0,0.0,0.0,0.0,0.0,0.0,0.0,0.0,0.0,0.0,0.0,0.0,0.0,0.0,0.0,0.0,0.0,3.36,1.02,4.38,0.78,72427.0,54145.0,7.93,3.44,0.47,7.67,7.92,7.37,0.0,0.0,0.0,0.0,0.0,0.0,89.15,10.85,0.0,0.0,0.0,0.0,36,0,4,4
NY,Montgomery,36057,-74.4397,42.9023,49.642,14.899,18.217,33.116,0.15,2.46,2.61,16.526,75.0,2.48,75.0,1.24,3.72,0.0,0.0,0.0,0.15,0.0,0.15,0.37,0.09,0.0,0.09,0.2,0.06,0.0,0.06,0.17,0.54,0.0,0.0,0.0,0.03,0.03,0.06,0.0,0.0,0.0,0.0,0.0,0.0,0.0,0.0,0.0,0.0,0.0,0.0,0.0,0.0,0.0,0.0,0.0,0.0,0.0,0.0,0.0,1.79,2.81,4.6,0.15,49779.0,43764.0,8.06,2.88,1.14,7.77,7.88,7.32,0.0,0.0,0.0,0.0,0.0,0.0,53.17,46.83,9.61,0.0,0.0,0.0,36,27,4,34
NY,Onondaga,36067,-76.1946,43.0058,468.463,3.916,216.06,219.976,0.37,57.67,58.04,248.487,75.0,16.5,75.0,18.64,35.14,0.2,0.0,0.2,1.6,0.0,1.52,3.56,0.63,0.0,0.6,1.32,0.97,0.0,0.92,2.24,0.77,0.0,0.0,0.0,0.46,0.46,0.92,0.0,0.0,0.0,0.0,0.56,0.39,334.09,0.0,0.0,0.0,0.0,0.0,0.0,0.0,0.0,0.0,0.0,0.0,0.56,0.39,334.09,20.37,59.8,80.17,1.91,468304.0,55092.0,8.61,3.98,1.22,8.37,8.8,8.04,0.0,0.0,0.0,0.0,0.0,0.0,73.69,26.31,0.0,0.0,0.0,0.0,45,38,17,44
NY,Ontario,36069,-77.2998,42.8529,109.561,2.044,87.996,90.04,1.16,45.37,46.53,19.521,75.0,6.75,75.0,1.46,8.21,0.01,0.0,0.01,0.68,0.0,0.65,1.57,0.4,0.0,0.38,0.92,0.28,0.0,0.27,0.65,0.82,0.0,0.34,0.34,0.06,1.12,1.18,0.0,0.0,0.0,0.0,0.0,0.0,0.0,0.0,0.0,0.0,0.0,0.0,0.0,0.0,0.0,0.0,0.0,0.0,0.0,0.0,0.0,3.3,47.72,51.02,0.65,109192.0,57416.0,8.81,3.77,1.45,8.53,8.88,8.06,0.0,0.0,0.0,0.0,0.0,0.0,60.94,39.06,0.0,0.0,0.0,0.0,25,0,17,23
NY,Orange,36071,-74.3056,41.4022,377.647,132.131,145.28,277.411,10.77,22.27,33.04,100.236,75.0,20.81,75.0,7.52,28.33,0.15,0.0,0.15,2.02,0.0,1.91,3.75,1.31,0.0,1.24,2.73,0.71,0.0,0.67,1.02,0.2,0.0,0.0,0.0,0.38,0.19,0.57,0.0,175.73,175.73,0.0,0.0,2.01,512.55,0.0,175.73,175.73,0.0,0.0,2.01,512.55,0.0,0.0,0.0,0.0,0.0,0.0,0.0,19.3,199.93,219.23,3.92,375384.0,70848.0,10.24,4.26,3.69,9.94,10.47,9.18,0.0,0.0,0.0,0.0,0.0,0.0,32.77,67.23,8.6,0.0,0.0,0.0,11,0,36,5
NY,Otsego,36077,-75.0326,42.6338,60.636,12.141,27.654,39.795,0.99,2.11,3.1,20.841,75.0,2.98,75.0,1.56,4.54,0.0,0.0,0.0,0.34,0.0,0.33,0.64,0.09,0.0,0.09,0.21,0.25,0.0,0.24,0.43,0.43,0.03,0.0,0.03,0.02,0.1,0.12,0.0,0.0,0.0,0.0,0.0,0.0,0.0,0.0,0.0,0.0,0.0,0.0,0.0,0.0,0.0,0.0,0.0,0.0,0.0,0.0,0.0,2.94,2.64,5.58,0.33,61399.0,48588.0,7.3,2.52,-0.32,7.0,6.94,6.66,0.0,0.0,0.0,0.0,0.0,0.0,87.39,12.61,0.0,0.0,0.0,0.0,36,27,4,39
NY,Putnam,36079,-73.7495,41.4267,99.042,10.68,14.002,24.682,1.45,1.37,2.82,74.36,75.0,1.85,75.0,5.58,7.43,0.0,0.0,0.0,0.26,0.0,0.25,0.49,0.01,0.0,0.01,0.04,0.25,0.0,0.24,0.45,0.0,0.0,0.0,0.0,0.0,0.0,0.0,0.0,0.0,0.0,0.0,0.0,0.0,0.0,0.0,0.0,0.0,0.0,0.0,0.0,0.0,0.0,0.0,0.0,0.0,0.0,0.0,0.0,7.09,1.57,8.66,0.25,99488.0,96148.0,10.27,4.57,3.57,9.99,10.63,9.3,0.0,0.0,0.0,0.0,0.0,0.0,34.7,65.3,32.9,0.0,0.0,0.0,36,27,4,47
NY,Rockland,36087,-74.0241,41.1529,326.037,151.467,150.564,302.031,16.6,16.58,33.18,24.006,75.0,22.65,75.0,1.8,24.45,0.81,0.0,0.81,0.63,0.0,0.6,0.75,0.04,0.0,0.04,0.07,0.59,0.0,0.56,0.68,0.0,0.0,0.0,0.0,0.0,0.0,0.0,0.0,229.78,229.78,0.0,0.0,2.3,1447.63,0.0,229.78,229.78,0.0,0.0,2.3,1447.63,0.0,0.0,0.0,0.0,0.0,0.0,0.0,19.32,246.88,266.2,2.9,320688.0,84855.0,11.02,5.31,4.15,10.78,11.66,10.07,0.0,0.0,0.0,0.0,0.0,0.0,41.83,58.17,23.84,0.0,0.0,0.0,11,0,36,12
NY,Schoharie,36095,-74.4421,42.5882,31.33,3.495,14.908,18.403,0.06,173.76,173.82,12.927,75.0,1.38,75.0,0.97,2.35,0.0,0.0,0.0,0.29,0.0,0.28,0.71,0.25,0.0,0.24,0.65,0.04,0.0,0.04,0.06,0.23,0.01,0.02,0.03,0.01,1.34,1.35,0.0,0.0,0.0,0.0,0.0,0.0,0.0,0.0,0.0,0.0,0.0,0.0,0.0,0.0,0.0,0.0,0.0,0.0,0.0,0.0,0.0,1.25,175.44,176.69,0.28,31913.0,51195.0,7.52,2.38,0.24,7.2,7.12,6.8,0.0,0.0,0.0,0.0,0.0,0.0,47.95,52.05,11.1,0.0,0.0,0.0,28,27,19,40
NY,Schuyler,36097,-76.8752,42.3938,18.186,5.282,5.28,10.562,0.41,0.42,0.83,7.624,75.0,0.79,75.0,0.57,1.36,0.0,0.0,0.0,0.13,0.0,0.13,0.25,0.1,0.0,0.1,0.16,0.03,0.0,0.03,0.09,0.27,0.0,0.0,0.0,0.0,10.32,10.32,0.0,0.0,0.0,0.0,0.0,0.0,0.0,0.0,0.0,0.0,0.0,0.0,0.0,0.0,0.0,0.0,0.0,0.0,0.0,0.0,0.0,1.16,10.96,12.12,0.13,18410.0,47680.0,8.26,3.26,1.03,7.96,8.12,7.51,0.0,0.0,0.0,0.0,0.0,0.0,58.81,41.19,0.0,0.0,0.0,0.0,4,27,4,11
NY,Seneca,36099,-76.8237,42.781,34.833,0.532,25.152,25.684,0.04,4.37,4.41,9.149,75.0,1.93,75.0,0.69,2.62,1.65,9.35,11.0,0.24,0.0,0.23,0.52,0.18,0.0,0.17,0.38,0.06,0.0,0.06,0.14,0.47,0.0,0.0,0.0,0.0,0.0,0.0,0.0,0.0,0.0,0.0,0.0,0.0,0.0,0.0,0.0,0.0,0.0,0.0,0.0,0.0,0.0,0.0,0.0,0.0,0.0,0.0,0.0,2.72,14.09,16.81,0.23,35144.0,49292.0,9.01,4.22,1.66,8.76,9.25,8.33,0.0,0.0,0.0,0.0,0.0,0.0,57.0,43.0,0.0,0.0,0.0,0.0,36,27,4,40
NY,Steuben,36101,-77.3838,42.2678,97.631,53.275,11.917,65.192,5.52,1.98,7.5,32.439,75.0,4.89,75.0,2.43,7.32,5.12,0.0,5.12,0.61,0.0,0.58,1.5,0.53,0.0,0.5,1.22,0.08,0.0,0.08,0.28,1.03,1.93,0.0,1.93,0.2,0.83,1.03,0.0,0.0,0.0,0.0,0.0,0.0,0.0,0.0,0.0,0.0,0.0,0.0,0.0,0.0,0.0,0.0,0.0,0.0,0.0,0.0,0.0,15.94,3.71,19.65,0.58,98665.0,47280.0,8.0,3.0,0.54,7.69,7.77,7.25,0.0,0.0,0.0,0.0,0.0,0.0,64.62,35.38,0.0,0.0,0.0,0.0,23,27,31,39
NY,Sullivan,36105,-74.7681,41.7164,74.877,36.289,8.227,44.516,3.7,86.07,89.77,30.361,75.0,3.34,75.0,2.28,5.62,0.0,0.0,0.0,0.52,0.0,0.5,0.8,0.04,0.0,0.04,0.09,0.48,0.0,0.46,0.71,0.13,2.39,1.16,3.55,0.12,0.53,0.65,0.0,0.0,0.0,0.0,0.0,0.0,0.0,0.0,0.0,0.0,0.0,0.0,0.0,0.0,0.0,0.0,0.0,0.0,0.0,0.0,0.0,8.67,88.23,96.9,0.5,76330.0,50710.0,8.63,3.21,1.6,8.31,8.48,7.78,0.0,0.0,0.0,0.0,0.0,0.0,59.29,40.71,1.89,0.0,0.0,0.0,8,0,17,40
NY,Tioga,36107,-76.3063,42.1703,49.453,29.434,1.588,31.022,3.3,0.15,3.45,18.431,75.0,2.33,75.0,1.38,3.71,0.0,0.0,0.0,0.55,0.0,0.53,1.27,0.3,0.0,0.29,0.67,0.25,0.0,0.24,0.6,0.27,0.0,0.0,0.0,0.16,0.7,0.86,0.0,0.0,0.0,0.0,0.0,0.0,0.0,0.0,0.0,0.0,0.0,0.0,0.0,0.0,0.0,0.0,0.0,0.0,0.0,0.0,0.0,5.09,1.42,6.51,0.53,50199.0,57514.0,8.62,3.24,1.64,8.3,8.47,7.73,0.0,0.0,0.0,0.0,0.0,0.0,93.78,6.22,0.0,0.0,0.0,0.0,36,27,4,22
NY,Tompkins,36109,-76.4737,42.452,104.926,17.774,77.327,95.101,1.08,6.79,7.87,9.825,75.0,7.13,75.0,0.74,7.87,0.0,0.0,0.0,0.25,0.0,0.23,0.59,0.11,0.0,0.1,0.25,0.14,0.0,0.13,0.34,0.37,0.0,0.0,0.0,1.13,4.66,5.79,0.0,133.84,133.84,0.0,0.0,1.49,531.52,0.0,133.84,133.84,0.0,0.0,1.49,531.52,0.0,0.0,0.0,0.0,0.0,0.0,0.0,3.22,145.64,148.86,1.72,103855.0,52624.0,8.32,3.49,1.02,8.04,8.28,7.61,0.0,0.0,0.0,0.0,0.0,0.0,61.06,38.94,0.0,0.0,0.0,0.0,23,27,42,41
NY,Wyoming,36121,-78.2245,42.7023,41.013,3.066,21.778,24.844,0.87,2.39,3.26,16.169,75.0,1.86,75.0,1.21,3.07,0.0,0.0,0.0,1.6,0.0,1.52,3.85,1.4,0.0,1.33,3.36,0.2,0.0,0.19,0.49,1.75,0.0,0.0,0.0,0.47,0.31,0.78,0.04,0.0,0.04,0.0,0.0,0.03,112.08,0.0,0.0,0.0,0.0,0.0,0.0,0.0,0.04,0.0,0.04,0.0,0.0,0.03,112.08,3.92,4.72,8.64,1.55,41446.0,52564.0,7.85,3.2,-0.02,7.55,7.68,7.2,0.0,0.0,0.0,0.0,0.0,0.0,83.99,16.01,0.0,0.0,0.0,0.0,36,27,4,4
PA,Adams,42001,-77.2179,39.8715,102.295,27.041,20.971,48.012,1.91,10.48,12.39,54.283,60.0,2.5,52.0,3.26,5.76,1.03,0.0,1.03,0.95,0.0,0.86,2.88,0.63,0.0,0.57,2.19,0.32,0.0,0.29,0.69,0.66,0.17,0.0,0.17,1.13,0.0,1.13,0.07,0.0,0.07,0.0,0.0,0.05,5095.0,0.07,0.0,0.07,0.0,0.0,0.05,5095.0,0.0,0.0,0.0,0.0,0.0,0.0,0.0,8.68,10.98,19.66,0.91,101767.0,60356.0,12.12,5.76,5.52,11.86,12.9,10.85,0.0,0.0,0.0,0.0,0.0,0.0,91.09,8.91,0.0,0.0,0.0,0.0,26,0,31,46
PA,Allegheny,42003,-79.9812,40.4688,1230.459,91.855,980.108,1071.963,8.82,169.35,178.17,158.496,60.0,63.65,59.0,9.51,73.16,2.67,244.34,247.01,1.73,0.0,1.56,3.17,0.07,0.0,0.06,0.24,1.66,0.0,1.5,2.93,0.04,0.0,0.0,0.0,0.14,0.0,0.14,0.19,135.45,135.64,0.0,0.0,2.02,5867.0,0.19,133.24,133.43,0.0,0.0,0.19,1940.0,0.0,2.21,2.21,0.0,0.0,1.83,3927.0,22.15,550.09,572.24,3.58,1231145.0,53040.0,10.88,5.73,4.19,10.64,11.66,10.09,0.0,0.0,0.0,0.0,0.0,0.0,86.9,13.1,0.0,0.0,0.0,0.0,33,38,32,21
PA,Armstrong,42005,-79.4645,40.8125,67.052,15.915,28.843,44.758,1.65,5.0,6.65,22.294,60.0,2.15,48.0,1.34,3.49,0.0,0.02,0.02,0.29,0.0,0.26,0.65,0.05,0.0,0.04,0.15,0.24,0.0,0.22,0.5,0.24,0.48,0.0,0.48,0.32,0.0,0.32,0.0,18.81,18.81,0.0,0.0,12.84,9515.0,0.0,0.0,0.0,0.0,0.0,0.0,0.0,0.0,18.81,18.81,0.0,0.0,12.84,9515.0,4.19,23.96,28.15,13.1,67979.0,44942.0,10.09,5.23,3.16,9.84,10.68,9.37,0.0,0.0,0.0,0.0,0.0,0.0,98.36,1.64,0.0,0.0,0.0,0.0,36,27,4,34
PA,Beaver,42007,-80.3493,40.6823,168.871,60.455,76.798,137.253,9.32,12.82,22.14,31.618,60.0,7.65,56.0,1.9,9.55,0.03,70.07,70.1,0.4,0.0,0.36,0.91,0.07,0.0,0.06,0.19,0.33,0.0,0.3,0.72,0.14,0.0,0.0,0.0,0.15,0.0,0.15,0.0,103.12,103.12,0.0,0.0,52.78,28149.0,0.0,0.0,0.0,0.0,0.0,0.0,0.0,0.0,103.12,103.12,0.0,0.0,52.78,28149.0,11.63,186.32,197.95,53.14,169785.0,50581.0,10.56,5.46,3.77,10.31,11.26,9.76,0.0,0.0,0.0,0.0,0.0,0.0,81.15,18.85,0.0,0.0,0.0,0.0,16,0,42,41
PA,Bedford,42009,-78.4902,40.0066,48.586,9.33,7.551,16.881,0.97,9.02,9.99,31.705,60.0,1.0,59.0,1.9,2.9,0.0,0.0,0.0,0.19,0.0,0.18,0.32,0.04,0.0,0.04,0.13,0.15,0.0,0.14,0.19,0.97,1.82,1.46,3.28,0.26,0.01,0.27,0.0,0.0,0.0,0.0,0.0,0.0,0.0,0.0,0.0,0.0,0.0,0.0,0.0,0.0,0.0,0.0,0.0,0.0,0.0,0.0,0.0,5.89,10.71,16.6,0.18,49086.0,45930.0,10.26,4.75,3.47,9.96,10.58,9.27,0.0,0.0,0.0,0.0,0.0,0.0,37.05,62.95,0.0,0.0,0.0,0.0,36,27,31,11
PA,Blair,42013,-78.3486,40.4813,125.593,15.664,70.812,86.476,1.69,11.38,13.07,39.117,60.0,5.68,66.0,2.35,8.03,0.14,0.0,0.14,0.23,0.0,0.21,0.56,0.1,0.0,0.09,0.28,0.13,0.0,0.12,0.28,0.92,0.0,0.93,0.93,0.61,0.01,0.62,0.0,0.0,0.0,0.0,0.0,0.0,0.0,0.0,0.0,0.0,0.0,0.0,0.0,0.0,0.0,0.0,0.0,0.0,0.0,0.0,0.0,5.74,12.52,18.26,0.21,126448.0,43981.0,9.63,4.57,2.53,9.34,9.9,8.83,0.0,0.0,0.0,0.0,0.0,0.0,55.71,44.29,0.0,0.0,0.0,0.0,26,27,31,32
PA,Bradford,42015,-76.5157,41.7886,61.281,22.05,0.0,22.05,3.02,0.0,3.02,39.231,60.0,1.62,73.0,2.35,3.97,3.26,0.0,3.26,0.09,0.0,0.08,0.24,0.05,0.0,0.04,0.15,0.04,0.0,0.04,0.09,1.05,0.0,0.0,0.0,0.0,0.01,0.01,0.0,0.0,0.0,0.0,0.0,0.0,0.0,0.0,0.0,0.0,0.0,0.0,0.0,0.0,0.0,0.0,0.0,0.0,0.0,0.0,0.0,9.63,0.15,9.78,0.08,62228.0,48987.0,8.79,3.28,1.84,8.46,8.65,7.88,0.0,0.0,0.0,0.0,0.0,0.0,84.9,15.1,0.0,0.0,0.0,0.0,36,27,4,39
PA,Butler,42019,-79.913,40.9117,186.818,16.178,98.87,115.048,1.37,6.29,7.66,71.77,60.0,6.48,56.0,4.31,10.79,0.19,0.79,0.98,0.8,0.0,0.72,1.9,0.19,0.0,0.17,0.58,0.61,0.0,0.55,1.32,0.24,0.0,0.0,0.0,0.92,0.0,0.92,0.0,0.0,0.0,0.0,0.0,0.0,0.0,0.0,0.0,0.0,0.0,0.0,0.0,0.0,0.0,0.0,0.0,0.0,0.0,0.0,0.0,7.39,7.52,14.91,0.72,185689.0,60934.0,10.11,5.14,3.19,9.85,10.67,9.36,0.0,0.0,0.0,0.0,0.0,0.0,80.28,19.72,0.0,0.0,0.0,0.0,23,0,31,23
PA,Cambria,42021,-78.7136,40.4954,136.411,23.617,97.31,120.927,2.26,12.67,14.93,15.484,60.0,5.98,49.0,0.93,6.91,0.01,0.0,0.01,0.32,0.0,0.29,0.56,0.02,0.0,0.02,0.06,0.3,0.0,0.27,0.5,0.16,0.26,1.11,1.37,0.0,0.0,0.0,0.0,0.0,0.0,0.0,0.0,0.0,0.0,0.0,0.0,0.0,0.0,0.0,0.0,0.0,0.0,0.0,0.0,0.0,0.0,0.0,0.0,3.72,14.0,17.72,0.29,139381.0,42107.0,9.15,4.47,1.66,8.86,9.37,8.44,0.0,0.0,0.0,0.0,0.0,0.0,78.11,21.89,0.0,0.0,0.0,0.0,26,0,31,32
PA,Cameron,42023,-78.2038,41.4368,4.732,0.0,3.066,3.066,0.0,0.34,0.34,1.666,60.0,0.17,55.0,0.1,0.27,0.0,0.0,0.0,0.03,0.0,0.03,0.06,0.0,0.0,0.0,0.0,0.03,0.0,0.03,0.06,0.0,0.0,0.42,0.42,0.0,0.0,0.0,0.0,0.0,0.0,0.0,0.0,0.0,0.0,0.0,0.0,0.0,0.0,0.0,0.0,0.0,0.0,0.0,0.0,0.0,0.0,0.0,0.0,0.1,0.79,0.89,0.03,4869.0,39897.0,8.35,3.65,1.03,8.06,8.34,7.7,0.0,0.0,0.0,0.0,0.0,0.0,75.1,24.9,0.0,0.0,0.0,0.0,4,27,4,45
PA,Clarion,42031,-79.421,41.1925,39.498,5.683,11.742,17.425,0.74,1.99,2.73,22.073,60.0,0.86,49.0,1.32,2.18,0.0,0.0,0.0,0.12,0.0,0.11,0.25,0.02,0.0,0.02,0.06,0.1,0.0,0.09,0.19,0.22,0.0,0.06,0.06,0.0,0.01,0.01,0.0,0.0,0.0,0.0,0.0,0.0,0.0,0.0,0.0,0.0,0.0,0.0,0.0,0.0,0.0,0.0,0.0,0.0,0.0,0.0,0.0,2.32,2.14,4.46,0.11,39454.0,42536.0,9.17,4.63,1.84,8.91,9.52,8.55,0.0,0.0,0.0,0.0,0.0,0.0,94.63,5.37,0.0,0.0,0.0,0.0,4,27,4,1
PA,Clearfield,42033,-78.4741,41.0002,80.994,23.806,34.708,58.514,1.13,4.71,5.84,22.48,60.0,2.73,47.0,1.35,4.08,0.0,0.0,0.0,0.18,0.0,0.17,0.39,0.04,0.0,0.04,0.11,0.14,0.0,0.13,0.28,0.1,0.0,1.14,1.14,0.0,0.0,0.0,0.0,113.37,113.37,0.0,0.0,1.13,917.0,0.0,113.37,113.37,0.0,0.0,1.13,917.0,0.0,0.0,0.0,0.0,0.0,0.0,0.0,2.66,119.32,121.98,1.3,81343.0,42257.0,8.91,4.14,1.4,8.62,9.04,8.18,0.0,0.0,0.0,0.0,0.0,0.0,84.92,15.08,0.0,0.0,0.0,0.0,36,27,21,1
PA,Columbia,42037,-76.4052,41.0486,66.672,16.218,16.197,32.415,2.58,2.44,5.02,34.257,60.0,1.74,54.0,2.06,3.8,0.45,0.0,0.45,0.36,0.0,0.33,0.95,0.21,0.0,0.19,0.63,0.15,0.0,0.14,0.32,0.32,0.0,1.33,1.33,0.0,0.01,0.01,0.0,0.0,0.0,0.0,0.0,0.0,0.0,0.0,0.0,0.0,0.0,0.0,0.0,0.0,0.0,0.0,0.0,0.0,0.0,0.0,0.0,5.58,3.97,9.55,0.33,66912.0,45374.0,10.29,4.3,3.67,9.97,10.5,9.18,0.0,0.0,0.0,0.0,0.0,0.0,51.65,48.35,0.0,0.0,0.0,0.0,36,27,4,34
PA,Crawford,42039,-80.1063,41.6848,86.484,25.759,1.54,27.299,5.35,0.32,5.67,59.185,60.0,2.14,78.0,3.55,5.69,0.32,0.0,0.32,0.46,0.0,0.42,1.0,0.12,0.0,0.11,0.34,0.34,0.0,0.31,0.66,0.8,0.76,2.88,3.64,0.0,0.0,0.0,0.0,0.0,0.0,0.0,0.0,0.0,0.0,0.0,0.0,0.0,0.0,0.0,0.0,0.0,0.0,0.0,0.0,0.0,0.0,0.0,0.0,10.95,3.49,14.44,0.42,87343.0,44579.0,8.84,4.54,1.47,8.6,9.19,8.33,0.0,0.0,0.0,0.0,0.0,0.0,56.42,43.58,0.0,0.0,0.0,0.0,36,0,4,32
PA,Cumberland,42041,-77.2651,40.1637,246.338,42.791,128.122,170.913,5.41,7.95,13.36,75.425,60.0,8.65,51.0,4.52,13.17,0.23,0.0,0.23,0.86,0.0,0.78,2.25,0.52,0.0,0.47,1.59,0.34,0.0,0.31,0.66,1.35,10.72,1.26,11.98,0.04,0.02,0.06,0.0,0.0,0.0,0.0,0.0,0.0,0.0,0.0,0.0,0.0,0.0,0.0,0.0,0.0,0.0,0.0,0.0,0.0,0.0,0.0,0.0,22.56,9.8,32.36,0.78,241427.0,61820.0,11.83,5.48,5.33,11.54,12.46,10.59,0.0,0.0,0.0,0.0,0.0,0.0,54.21,45.79,0.0,0.0,0.0,0.0,16,0,31,0
PA,Dauphin,42043,-76.7793,40.4155,272.983,22.906,175.199,198.105,2.19,29.28,31.47,74.878,60.0,12.64,64.0,4.49,17.13,3.7,17.66,21.36,0.74,0.0,0.67,1.68,0.21,0.0,0.19,0.7,0.53,0.0,0.48,0.98,0.62,0.58,0.16,0.74,0.01,0.0,0.01,0.09,33.2,33.29,0.0,0.0,18.22,6598.0,0.0,0.0,0.0,0.0,0.0,0.0,0.0,0.09,33.2,33.29,0.0,0.0,18.22,6598.0,11.97,80.75,92.72,18.89,271094.0,53754.0,11.87,5.4,5.31,11.57,12.47,10.59,0.0,0.0,0.0,0.0,0.0,0.0,66.89,33.11,0.0,0.0,0.0,0.0,46,0,39,15
PA,Elk,42047,-78.6492,41.4252,30.872,2.347,24.133,26.48,0.32,5.0,5.32,4.392,59.0,1.86,70.0,0.26,2.12,0.0,15.15,15.15,0.12,0.0,0.11,0.22,0.02,0.0,0.02,0.03,0.1,0.0,0.09,0.19,0.03,0.06,0.97,1.03,0.04,0.0,0.04,0.0,0.0,0.0,0.0,0.0,0.0,0.0,0.0,0.0,0.0,0.0,0.0,0.0,0.0,0.0,0.0,0.0,0.0,0.0,0.0,0.0,0.77,21.18,21.95,0.11,31370.0,46671.0,8.25,3.69,0.68,7.96,8.24,7.63,0.0,0.0,0.0,0.0,0.0,0.0,85.49,14.51,0.0,0.0,0.0,0.0,36,27,4,11
PA,Forest,42053,-79.2361,41.5132,7.41,1.597,0.0,1.597,0.41,0.0,0.41,5.813,60.0,0.07,44.0,0.35,0.42,0.0,0.0,0.0,0.04,0.0,0.04,0.08,0.0,0.0,0.0,0.02,0.04,0.0,0.04,0.06,0.01,1.59,0.0,1.59,0.0,0.0,0.0,0.0,0.0,0.0,0.0,0.0,0.0,0.0,0.0,0.0,0.0,0.0,0.0,0.0,0.0,0.0,0.0,0.0,0.0,0.0,0.0,0.0,2.38,0.02,2.4,0.04,7581.0,35533.0,8.46,4.09,1.0,8.19,8.62,7.92,0.0,0.0,0.0,0.0,0.0,0.0,73.96,26.04,0.0,0.0,0.0,0.0,4,27,4,24
PA,Franklin,42055,-77.7212,39.9275,153.638,60.095,40.719,100.814,5.81,2.66,8.47,52.824,60.0,5.41,54.0,3.17,8.58,0.16,0.0,0.16,1.25,0.0,1.13,3.44,0.93,0.0,0.84,2.84,0.32,0.0,0.29,0.6,2.86,0.0,1.96,1.96,0.15,0.85,1.0,0.0,0.0,0.0,0.0,0.0,0.0,0.0,0.0,0.0,0.0,0.0,0.0,0.0,0.0,0.0,0.0,0.0,0.0,0.0,0.0,0.0,12.54,6.33,18.87,1.13,152285.0,53916.0,11.65,5.47,5.34,11.37,12.3,10.46,0.0,0.0,0.0,0.0,0.0,0.0,56.37,43.63,0.0,0.0,0.0,0.0,23,0,31,41
PA,Fulton,42057,-78.1124,39.9255,14.629,2.429,0.024,2.453,0.37,0.0,0.37,12.176,60.0,0.16,65.0,0.73,0.89,0.0,0.0,0.0,0.07,0.0,0.07,0.13,0.03,0.0,0.03,0.07,0.04,0.0,0.04,0.06,0.39,0.45,0.0,0.45,0.0,0.0,0.0,0.0,0.0,0.0,0.0,0.0,0.0,0.0,0.0,0.0,0.0,0.0,0.0,0.0,0.0,0.0,0.0,0.0,0.0,0.0,0.0,0.0,1.95,0.06,2.01,0.07,14694.0,48311.0,11.22,5.18,5.04,10.92,11.73,10.09,0.0,0.0,0.0,0.0,0.0,0.0,34.83,65.17,0.0,0.0,0.0,0.0,4,27,4,11
PA,Greene,42059,-80.2229,39.8538,37.519,0.0,26.009,26.009,0.0,7.19,7.19,11.51,60.0,1.34,52.0,0.69,2.03,0.0,0.0,0.0,0.08,0.0,0.07,0.19,0.0,0.0,0.0,0.03,0.08,0.0,0.07,0.16,0.16,0.0,0.0,0.0,4.64,1.21,5.85,0.0,4.28,4.28,0.0,0.0,0.0,0.0,0.0,0.0,0.0,0.0,0.0,0.0,0.0,0.0,4.28,4.28,0.0,0.0,0.0,0.0,5.51,12.74,18.25,0.07,37938.0,46661.0,11.26,6.25,4.82,11.04,12.27,10.51,0.0,0.0,0.0,0.0,0.0,0.0,92.07,7.93,0.0,0.0,0.0,0.0,36,27,4,11
PA,Huntingdon,42061,-77.9812,40.417,45.668,9.842,10.405,20.247,1.42,1.43,2.85,25.421,60.0,1.19,59.0,1.52,2.71,0.0,0.0,0.0,0.48,0.0,0.44,0.93,0.44,0.0,0.4,0.84,0.04,0.0,0.04,0.09,0.76,0.0,0.62,0.62,0.28,1.05,1.33,0.0,0.0,0.0,0.0,0.0,0.0,0.0,0.0,0.0,0.0,0.0,0.0,0.0,0.0,0.0,0.0,0.0,0.0,0.0,0.0,0.0,4.18,3.38,7.56,0.44,45906.0,44396.0,10.48,4.85,4.02,10.19,10.87,9.48,0.0,0.0,0.0,0.0,0.0,0.0,46.93,53.07,0.0,0.0,0.0,0.0,4,27,4,34
PA,Indiana,42063,-79.0875,40.6521,86.966,3.49,41.898,45.388,0.35,3.76,4.11,41.578,60.0,2.29,50.0,2.5,4.79,0.0,0.0,0.0,0.21,0.0,0.19,0.52,0.03,0.0,0.03,0.11,0.18,0.0,0.16,0.41,0.38,0.0,0.37,0.37,1.57,0.0,1.57,0.25,33.32,33.57,0.0,0.0,25.61,21866.0,0.0,0.0,0.0,0.0,0.0,0.0,0.0,0.25,33.32,33.57,0.0,0.0,25.61,21866.0,5.1,37.61,42.71,25.8,87895.0,45195.0,9.95,5.04,2.79,9.68,10.42,9.18,0.0,0.0,0.0,0.0,0.0,0.0,84.05,15.95,0.0,0.0,0.0,0.0,36,27,4,32
PA,Jefferson,42065,-78.9995,41.1281,44.43,5.811,17.269,23.08,0.58,1.56,2.14,21.35,60.0,1.09,47.0,1.28,2.37,0.01,0.0,0.01,0.12,0.0,0.11,0.26,0.02,0.0,0.02,0.07,0.1,0.0,0.09,0.19,0.2,0.29,0.74,1.03,0.08,0.0,0.08,0.0,0.0,0.0,0.0,0.0,0.0,0.0,0.0,0.0,0.0,0.0,0.0,0.0,0.0,0.0,0.0,0.0,0.0,0.0,0.0,0.0,2.48,2.38,4.86,0.11,44756.0,42903.0,9.03,4.3,1.52,8.74,9.23,8.32,0.0,0.0,0.0,0.0,0.0,0.0,99.73,0.27,0.0,0.0,0.0,0.0,4,27,4,1
PA,Juniata,42067,-77.402,40.5311,24.737,3.916,3.058,6.974,0.29,0.53,0.82,17.763,60.0,0.39,56.0,1.07,1.46,0.75,0.0,0.75,0.08,0.0,0.07,0.32,0.07,0.0,0.06,0.26,0.01,0.0,0.01,0.06,0.67,0.37,0.0,0.37,0.0,0.0,0.0,0.0,0.0,0.0,0.0,0.0,0.0,0.0,0.0,0.0,0.0,0.0,0.0,0.0,0.0,0.0,0.0,0.0,0.0,0.0,0.0,0.0,3.15,0.61,3.76,0.07,24829.0,47398.0,10.96,4.86,4.85,10.66,11.36,9.8,0.0,0.0,0.0,0.0,0.0,0.0,45.31,54.69,0.0,0.0,0.0,0.0,4,27,4,11
PA,Lackawanna,42069,-75.6092,41.437,211.917,8.427,143.466,151.893,1.04,37.66,38.7,60.024,60.0,8.02,53.0,3.6,11.62,0.0,0.0,0.0,0.49,0.0,0.44,1.01,0.04,0.0,0.04,0.13,0.45,0.0,0.4,0.88,0.07,0.0,0.0,0.0,0.18,0.0,0.18,0.0,0.0,0.0,0.0,0.0,0.0,0.0,0.0,0.0,0.0,0.0,0.0,0.0,0.0,0.0,0.0,0.0,0.0,0.0,0.0,0.0,5.1,37.94,43.04,0.44,213459.0,46271.0,9.06,3.48,1.95,8.74,8.99,8.15,0.0,0.0,0.0,0.0,0.0,0.0,67.41,32.59,0.0,0.0,0.0,0.0,25,0,17,20
PA,Lancaster,42071,-76.2477,40.0424,536.624,146.782,152.236,299.018,13.12,41.33,54.45,237.606,60.0,15.41,52.0,14.26,29.67,1.83,0.0,1.83,2.71,0.0,2.47,7.2,2.14,0.0,1.96,6.07,0.57,0.0,0.51,1.13,8.5,0.69,0.73,1.42,7.43,0.0,7.43,0.0,2525.3,2525.3,0.0,0.0,25.99,0.0,0.0,2525.3,2525.3,0.0,0.0,25.99,0.0,0.0,0.0,0.0,0.0,0.0,0.0,0.0,46.8,2569.1,2615.9,28.46,530216.0,57721.0,12.13,5.99,5.24,11.89,13.02,10.93,0.0,0.0,0.0,0.0,0.0,0.0,91.58,8.42,0.57,0.0,0.0,0.0,45,0,22,44
PA,Lawrence,42073,-80.3342,40.9912,88.082,3.577,46.528,50.105,0.45,9.62,10.07,37.977,60.0,2.89,58.0,2.28,5.17,0.0,0.0,0.0,0.34,0.0,0.31,0.7,0.04,0.0,0.04,0.13,0.3,0.0,0.27,0.57,0.28,0.0,0.16,0.16,0.52,0.0,0.52,0.34,45.68,46.02,0.0,0.0,0.46,317.0,0.34,45.68,46.02,0.0,0.0,0.46,317.0,0.0,0.0,0.0,0.0,0.0,0.0,0.0,4.01,55.66,59.67,0.77,89162.0,44571.0,10.1,5.11,3.16,9.85,10.67,9.33,0.0,0.0,0.0,0.0,0.0,0.0,73.68,26.32,0.0,0.0,0.0,0.0,26,0,31,32
PA,Lebanon,42075,-76.4577,40.3672,137.067,19.031,60.629,79.66,1.76,1.79,3.55,57.407,60.0,4.22,53.0,3.44,7.66,0.56,0.0,0.56,0.79,0.0,0.71,1.93,0.56,0.0,0.5,1.46,0.23,0.0,0.21,0.47,2.05,0.31,2.67,2.98,0.0,0.0,0.0,1.64,0.0,1.64,1.06,0.0,0.0,3339.2,0.0,0.0,0.0,0.0,0.0,0.0,0.0,1.64,0.0,1.64,1.06,0.0,0.0,3339.2,10.07,4.94,15.01,0.71,135776.0,55499.0,11.62,5.4,4.96,11.35,12.25,10.4,0.0,0.0,0.0,0.0,0.0,0.0,85.27,14.73,0.0,0.0,0.0,0.0,36,27,4,41
PA,Luzerne,42079,-75.9889,41.1771,318.449,36.957,188.692,225.649,3.51,19.31,22.82,92.8,60.0,14.81,66.0,5.57,20.38,0.0,0.0,0.0,0.57,0.0,0.51,1.2,0.09,0.0,0.08,0.29,0.48,0.0,0.43,0.91,0.07,0.0,0.0,0.0,0.03,0.37,0.4,0.04,94.3,94.34,0.0,0.0,36.3,20779.0,0.0,39.34,39.34,0.0,0.0,0.33,188.0,0.04,54.96,55.0,0.0,0.0,35.97,20591.0,9.52,114.25,123.77,36.81,320095.0,45897.0,9.54,3.97,2.62,9.23,9.65,8.62,0.0,0.0,0.0,0.0,0.0,0.0,55.58,44.42,0.01,0.0,0.0,0.0,29,0,39,20
PA,McKean,42083,-78.569,41.8078,42.412,12.473,13.978,26.451,2.14,4.63,6.77,15.961,60.0,1.72,65.0,0.96,2.68,2.77,0.01,2.78,0.13,0.0,0.12,0.27,0.01,0.0,0.01,0.02,0.12,0.0,0.11,0.25,0.04,0.09,0.0,0.09,0.69,0.02,0.71,0.0,0.0,0.0,0.0,0.0,0.0,0.0,0.0,0.0,0.0,0.0,0.0,0.0,0.0,0.0,0.0,0.0,0.0,0.0,0.0,0.0,6.76,4.72,11.48,0.12,42884.0,43965.0,7.57,3.31,-0.17,7.29,7.44,7.08,0.0,0.0,0.0,0.0,0.0,0.0,55.47,44.53,0.0,0.0,0.0,0.0,36,27,4,34
PA,Mercer,42085,-80.2577,41.3022,114.234,14.212,46.569,60.781,1.85,11.89,13.74,53.453,60.0,3.31,54.0,3.21,6.52,0.04,13.32,13.36,0.45,0.0,0.41,0.93,0.03,0.0,0.03,0.11,0.42,0.0,0.38,0.82,0.51,0.03,0.0,0.03,0.24,0.0,0.24,0.0,0.0,0.0,0.0,0.0,0.0,0.0,0.0,0.0,0.0,0.0,0.0,0.0,0.0,0.0,0.0,0.0,0.0,0.0,0.0,0.0,6.06,25.48,31.54,0.41,115320.0,44156.0,9.64,4.88,2.58,9.39,10.12,8.96,0.0,0.0,0.0,0.0,0.0,0.0,76.42,23.58,0.0,0.0,0.0,0.0,26,0,31,32
PA,Mifflin,42087,-77.6171,40.6104,46.5,2.001,25.99,27.991,0.07,2.62,2.69,18.509,60.0,1.32,47.0,1.11,2.43,0.0,3.68,3.68,0.08,0.0,0.07,0.24,0.03,0.0,0.03,0.11,0.05,0.0,0.04,0.13,0.7,0.0,0.0,0.0,0.03,0.05,0.08,0.0,0.0,0.0,0.0,0.0,0.0,0.0,0.0,0.0,0.0,0.0,0.0,0.0,0.0,0.0,0.0,0.0,0.0,0.0,0.0,0.0,1.87,6.47,8.34,0.07,46675.0,41288.0,10.6,4.67,4.36,10.29,10.92,9.49,0.0,0.0,0.0,0.0,0.0,0.0,59.59,40.41,0.0,0.0,0.0,0.0,4,27,4,1
PA,Montour,42093,-76.6586,41.028,18.557,0.563,7.735,8.298,0.03,0.0,0.03,10.259,60.0,0.66,80.0,0.62,1.28,0.0,0.0,0.0,0.1,0.0,0.09,0.25,0.04,0.0,0.04,0.12,0.06,0.0,0.05,0.13,0.13,0.0,0.0,0.0,0.01,0.0,0.01,0.01,0.0,0.01,0.0,0.0,8.84,6644.0,0.0,0.0,0.0,0.0,0.0,0.0,0.0,0.01,0.0,0.01,0.0,0.0,8.84,6644.0,0.84,0.06,0.9,8.93,18508.0,54648.0,10.57,4.39,4.15,10.25,10.8,9.4,0.0,0.0,0.0,0.0,0.0,0.0,54.38,45.62,0.0,0.0,0.0,0.0,4,27,4,22
PA,Perry,42099,-77.2622,40.3984,45.685,10.048,2.798,12.846,0.71,0.0,0.71,32.839,60.0,0.8,62.0,1.97,2.77,0.0,0.0,0.0,0.1,0.0,0.09,0.31,0.1,0.0,0.09,0.31,0.0,0.0,0.0,0.0,0.81,0.22,1.02,1.24,0.0,0.0,0.0,0.0,0.0,0.0,0.0,0.0,0.0,0.0,0.0,0.0,0.0,0.0,0.0,0.0,0.0,0.0,0.0,0.0,0.0,0.0,0.0,0.0,3.71,1.12,4.83,0.09,45677.0,57177.0,11.44,5.13,5.07,11.13,11.93,10.2,0.0,0.0,0.0,0.0,0.0,0.0,41.0,59.0,0.0,0.0,0.0,0.0,4,27,4,22
PA,Pike,42103,-75.0338,41.3321,55.949,37.032,0.0,37.032,3.05,0.0,3.05,18.917,60.0,1.6,43.0,1.14,2.74,0.0,0.0,0.0,0.18,0.0,0.16,0.39,0.0,0.0,0.0,0.01,0.18,0.0,0.16,0.38,0.0,0.0,0.0,0.0,0.01,0.0,0.01,0.0,0.0,0.0,0.0,0.0,0.0,0.0,0.0,0.0,0.0,0.0,0.0,0.0,0.0,0.0,0.0,0.0,0.0,0.0,0.0,0.0,4.3,0.08,4.38,0.16,56632.0,60180.0,9.59,3.72,2.57,9.26,9.6,8.55,0.0,0.0,0.0,0.0,0.0,0.0,46.7,53.3,5.07,0.0,0.0,0.0,36,27,4,46
PA,Potter,42105,-77.8958,41.745,17.093,5.979,1.203,7.182,0.77,0.14,0.91,9.911,60.0,0.36,50.0,0.59,0.95,0.0,0.0,0.0,0.04,0.0,0.04,0.06,0.0,0.0,0.0,0.0,0.04,0.0,0.04,0.06,0.3,2.99,0.57,3.56,0.0,0.0,0.0,0.0,0.0,0.0,0.0,0.0,0.0,0.0,0.0,0.0,0.0,0.0,0.0,0.0,0.0,0.0,0.0,0.0,0.0,0.0,0.0,0.0,4.64,0.76,5.4,0.04,17377.0,40654.0,7.47,2.94,-0.41,7.16,7.2,6.89,0.0,0.0,0.0,0.0,0.0,0.0,71.35,28.65,0.0,0.0,0.0,0.0,4,27,4,1
PA,Schuylkill,42107,-76.216,40.7059,144.59,32.014,66.572,98.586,3.89,19.49,23.38,46.004,60.0,6.01,61.0,2.76,8.77,0.71,0.0,0.71,0.74,0.0,0.67,2.19,0.51,0.0,0.46,1.65,0.23,0.0,0.21,0.54,0.54,0.14,1.54,1.68,0.34,0.0,0.34,2.71,0.0,2.71,0.0,0.0,1.87,1759.0,0.0,0.0,0.0,0.0,0.0,0.0,0.0,2.71,0.0,2.71,0.0,0.0,1.87,1759.0,11.46,21.4,32.86,2.54,146360.0,45535.0,10.45,4.46,3.65,10.14,10.71,9.33,0.0,0.0,0.0,0.0,0.0,0.0,51.49,48.51,0.44,0.0,0.0,0.0,16,27,39,32
PA,Snyder,42109,-77.0701,40.77,40.444,12.175,4.0,16.175,1.36,0.24,1.6,24.269,60.0,1.03,64.0,1.46,2.49,0.04,0.0,0.04,0.36,0.0,0.33,0.97,0.24,0.0,0.22,0.78,0.12,0.0,0.11,0.19,0.85,0.0,0.77,0.77,0.04,0.0,0.04,0.0,0.0,0.0,0.0,0.0,0.0,0.0,0.0,0.0,0.0,0.0,0.0,0.0,0.0,0.0,0.0,0.0,0.0,0.0,0.0,0.0,3.92,1.2,5.12,0.33,40046.0,49917.0,10.9,4.78,4.57,10.6,11.27,9.74,0.0,0.0,0.0,0.0,0.0,0.0,58.54,41.46,0.0,0.0,0.0,0.0,4,27,4,40
PA,Somerset,42111,-79.0283,39.9725,75.522,32.484,12.082,44.566,3.65,18.96,22.61,30.956,60.0,2.2,49.0,1.86,4.06,0.0,0.01,0.01,0.33,0.0,0.3,0.65,0.04,0.0,0.04,0.11,0.29,0.0,0.26,0.54,0.89,0.13,1.43,1.56,0.04,0.05,0.09,0.0,0.0,0.0,0.0,0.0,0.0,0.0,0.0,0.0,0.0,0.0,0.0,0.0,0.0,0.0,0.0,0.0,0.0,0.0,0.0,0.0,6.61,20.74,27.35,0.3,76617.0,44587.0,9.09,4.64,1.42,8.81,9.37,8.46,0.0,0.0,0.0,0.0,0.0,0.0,65.36,34.64,0.0,0.0,0.0,0.0,26,0,31,34
PA,Sullivan,42113,-76.5119,41.446,6.328,1.318,0.0,1.318,0.65,0.0,0.65,5.01,60.0,0.05,38.0,0.3,0.35,0.0,0.0,0.0,0.04,0.0,0.04,0.07,0.0,0.0,0.0,0.01,0.04,0.0,0.04,0.06,0.09,0.0,0.0,0.0,0.0,0.0,0.0,0.0,0.0,0.0,0.0,0.0,0.0,0.0,0.0,0.0,0.0,0.0,0.0,0.0,0.0,0.0,0.0,0.0,0.0,0.0,0.0,0.0,1.05,0.03,1.08,0.04,6381.0,44189.0,8.58,3.18,1.56,8.25,8.39,7.72,0.0,0.0,0.0,0.0,0.0,0.0,54.35,45.65,0.0,0.0,0.0,0.0,4,27,4,34
PA,Susquehanna,42115,-75.8008,41.8214,41.666,3.503,6.645,10.148,0.31,1.1,1.41,31.518,60.0,0.57,56.0,1.89,2.46,0.0,0.0,0.0,0.15,0.0,0.14,0.33,0.03,0.0,0.03,0.08,0.12,0.0,0.11,0.25,0.47,0.0,0.1,0.1,0.1,0.0,0.1,0.0,0.0,0.0,0.0,0.0,0.0,0.0,0.0,0.0,0.0,0.0,0.0,0.0,0.0,0.0,0.0,0.0,0.0,0.0,0.0,0.0,2.8,1.32,4.12,0.14,42369.0,50477.0,8.53,3.16,1.37,8.21,8.37,7.68,0.0,0.0,0.0,0.0,0.0,0.0,80.63,19.37,0.0,0.0,0.0,0.0,4,27,4,40
PA,Tioga,42117,-77.2543,41.7721,41.877,10.974,4.108,15.082,1.2,0.83,2.03,26.795,60.0,0.81,54.0,1.61,2.42,0.29,1.4,1.69,0.15,0.0,0.13,0.37,0.05,0.0,0.04,0.15,0.1,0.0,0.09,0.22,0.57,0.42,1.06,1.48,0.04,0.0,0.04,0.0,0.0,0.0,0.0,0.0,0.0,0.0,0.0,0.0,0.0,0.0,0.0,0.0,0.0,0.0,0.0,0.0,0.0,0.0,0.0,0.0,4.15,3.42,7.57,0.13,42284.0,46494.0,8.19,3.01,0.76,7.87,7.95,7.39,0.0,0.0,0.0,0.0,0.0,0.0,72.08,27.92,0.0,0.0,0.0,0.0,4,27,4,11
PA,Union,42119,-77.0621,40.963,44.954,4.329,9.755,14.084,0.34,2.53,2.87,30.87,60.0,0.78,55.0,1.85,2.63,0.22,0.0,0.22,0.07,0.0,0.07,0.19,0.04,0.0,0.04,0.13,0.03,0.0,0.03,0.06,0.75,0.0,0.12,0.12,0.0,0.02,0.02,0.0,0.0,0.0,0.0,0.0,0.0,0.0,0.0,0.0,0.0,0.0,0.0,0.0,0.0,0.0,0.0,0.0,0.0,0.0,0.0,0.0,3.16,2.74,5.9,0.07,44958.0,49803.0,10.45,4.57,4.21,10.16,10.77,9.4,0.0,0.0,0.0,0.0,0.0,0.0,62.38,37.62,0.0,0.0,0.0,0.0,4,27,4,40
PA,Venango,42121,-79.758,41.401,53.119,32.175,0.831,33.006,4.48,0.2,4.68,20.113,60.0,2.49,75.0,1.21,3.7,0.0,0.22,0.22,0.11,0.0,0.1,0.27,0.01,0.0,0.01,0.02,0.1,0.0,0.09,0.25,0.11,0.0,0.0,0.0,0.0,0.1,0.1,0.03,0.52,0.55,0.0,0.0,0.48,259.0,0.0,0.0,0.0,0.0,0.0,0.0,0.0,0.03,0.52,0.55,0.0,0.0,0.48,259.0,5.88,1.1,6.98,0.58,53906.0,43644.0,8.95,4.59,1.66,8.7,9.32,8.42,0.0,0.0,0.0,0.0,0.0,0.0,77.77,22.23,0.0,0.0,0.0,0.0,36,27,4,34
PA,Warren,42123,-79.2741,41.8147,40.396,18.539,0.977,19.516,2.86,0.21,3.07,20.88,60.0,0.99,51.0,1.25,2.24,8.87,0.0,8.87,0.16,0.0,0.15,0.34,0.03,0.0,0.03,0.09,0.13,0.0,0.12,0.25,0.2,0.38,0.0,0.38,0.01,0.0,0.01,0.0,0.0,0.0,0.0,0.0,0.0,0.0,0.0,0.0,0.0,0.0,0.0,0.0,0.0,0.0,0.0,0.0,0.0,0.0,0.0,0.0,13.62,0.32,13.94,0.15,40962.0,44020.0,8.01,3.86,0.42,7.74,8.09,7.56,0.0,0.0,0.0,0.0,0.0,0.0,45.73,54.27,0.0,0.0,0.0,0.0,4,27,4,34
PA,Washington,42125,-80.2482,40.1894,208.261,0.0,142.849,142.849,0.0,39.71,39.71,65.412,60.0,8.79,62.0,3.92,12.71,0.0,0.0,0.0,0.81,0.0,0.73,1.88,0.23,0.0,0.21,0.75,0.58,0.0,0.52,1.13,0.39,0.0,0.0,0.0,1.8,0.0,1.8,0.0,0.0,0.0,0.0,0.0,0.0,0.0,0.0,0.0,0.0,0.0,0.0,0.0,0.0,0.0,0.0,0.0,0.0,0.0,0.0,0.0,6.45,40.18,46.63,0.73,208226.0,56450.0,11.04,5.82,4.46,10.8,11.87,10.2,0.0,0.0,0.0,0.0,0.0,0.0,91.33,8.67,0.0,0.0,0.0,0.0,46,0,17,23
PA,Wyoming,42131,-76.0165,41.5184,27.8,7.819,0.0,7.819,0.66,0.0,0.66,19.981,60.0,0.46,59.0,1.2,1.66,0.02,9.28,9.3,0.14,0.0,0.13,0.33,0.03,0.0,0.03,0.11,0.11,0.0,0.1,0.22,0.12,0.0,0.0,0.0,0.0,0.0,0.0,0.0,0.0,0.0,0.0,0.0,0.0,0.0,0.0,0.0,0.0,0.0,0.0,0.0,0.0,0.0,0.0,0.0,0.0,0.0,0.0,0.0,2.06,9.36,11.42,0.13,28147.0,51004.0,9.32,3.79,2.47,9.02,9.39,8.41,0.0,0.0,0.0,0.0,0.0,0.0,63.03,36.97,0.0,0.0,0.0,0.0,4,27,4,40
PA,York,42133,-76.7265,39.9199,442.867,59.71,219.304,279.014,3.56,31.26,34.82,163.853,60.0,14.88,53.0,9.83,24.71,0.87,28.81,29.68,0.9,0.0,0.81,2.06,0.26,0.0,0.23,0.83,0.64,0.0,0.58,1.23,0.79,0.0,1.9,1.9,3.26,0.0,3.26,0.0,2.1,2.1,0.0,0.0,1.4,26686.05,0.0,0.0,0.0,0.0,0.0,0.0,24709.05,0.0,2.1,2.1,0.0,0.0,1.4,1977.0,18.68,64.6,83.28,2.21,439660.0,58269.0,12.16,5.8,5.24,11.89,12.94,10.88,0.0,0.0,0.0,0.0,0.0,0.0,91.37,8.63,0.0,0.0,0.0,0.0,46,0,39,44
RI,Newport,44005,-71.2366,41.556,82.423,0.822,64.952,65.774,0.09,7.11,7.2,16.649,47.0,3.07,47.0,0.78,3.85,0.0,0.06,0.06,0.47,0.0,0.45,0.95,0.2,0.0,0.19,0.5,0.27,0.0,0.26,0.45,0.04,0.0,0.0,0.0,0.0,0.0,0.0,0.0,0.0,0.0,0.0,0.0,0.0,0.0,0.0,0.0,0.0,0.0,0.0,0.0,0.0,0.0,0.0,0.0,0.0,0.0,0.0,0.0,1.35,7.2,8.55,0.45,82663.0,69526.0,10.76,6.37,1.02,10.53,11.71,10.06,0.0,0.0,0.0,0.0,0.0,0.0,74.93,25.07,11.78,0.0,0.0,0.0,36,0,31,35
VA,Patrick,51141,-80.2843,36.6784,18.045,0.1,1.5,1.6,0.03,0.26,0.29,16.445,80.0,0.13,81.0,1.32,1.45,0.15,0.13,0.28,0.13,0.0,0.11,0.32,0.03,0.0,0.03,0.1,0.1,0.0,0.08,0.22,0.23,0.0,0.0,0.0,0.0,0.0,0.0,0.0,0.0,0.0,0.0,0.0,0.0,0.0,0.0,0.0,0.0,0.0,0.0,0.0,0.0,0.0,0.0,0.0,0.0,0.0,0.0,0.0,1.55,0.7,2.25,0.11,18264.0,33982.0,13.81,7.96,7.94,13.59,15.34,12.75,0.0,0.0,0.0,0.0,0.0,0.0,60.77,39.23,0.0,0.0,0.0,0.0,4,27,4,8
VA,Pittsylvania,51143,-79.3971,36.8213,62.194,0.624,16.165,16.789,0.0,1.62,1.62,45.405,80.0,1.34,80.0,3.63,4.97,0.01,0.0,0.01,1.25,0.0,1.06,4.05,1.08,0.0,0.92,3.72,0.17,0.0,0.14,0.33,0.91,0.0,0.01,0.01,0.0,0.0,0.0,0.0,0.5,0.5,0.0,0.0,0.35,267.41,0.0,0.0,0.0,0.0,0.0,0.0,0.0,0.0,0.5,0.5,0.0,0.0,0.35,267.41,3.89,4.04,7.93,1.41,62794.0,41824.0,15.14,8.76,9.27,14.97,17.01,13.83,0.0,0.0,0.0,0.0,0.0,0.0,64.38,35.62,0.0,0.0,0.0,0.0,4,27,4,1
VA,Pulaski,51155,-80.7143,37.0636,34.332,0.333,26.475,26.808,0.0,4.39,4.39,7.524,80.0,2.14,80.0,0.6,2.74,0.0,0.0,0.0,0.1,0.0,0.08,0.34,0.0,0.0,0.0,0.01,0.1,0.0,0.08,0.33,0.44,0.0,0.0,0.0,0.01,0.02,0.03,0.0,0.0,0.0,0.0,0.0,0.0,0.0,0.0,0.0,0.0,0.0,0.0,0.0,0.0,0.0,0.0,0.0,0.0,0.0,0.0,0.0,0.69,4.87,5.56,0.08,34528.0,47495.0,12.14,6.85,5.9,11.86,13.18,11.31,0.0,0.0,0.0,0.0,0.0,0.0,79.6,20.4,0.0,0.0,0.0,0.0,36,27,4,11
VA,Roanoke,51161,-80.0679,37.2693,94.409,11.15,74.933,86.083,21.03,4.1,25.13,8.326,80.0,6.89,80.0,0.67,7.56,0.2,0.02,0.22,0.69,0.0,0.59,0.64,0.03,0.0,0.03,0.1,0.66,0.0,0.56,0.54,0.05,0.0,0.0,0.0,0.02,0.07,0.09,0.0,0.0,0.0,0.0,0.0,0.0,0.0,0.0,0.0,0.0,0.0,0.0,0.0,0.0,0.0,0.0,0.0,0.0,0.0,0.0,0.0,22.2,4.65,26.85,0.59,93633.0,60519.0,13.07,7.41,7.44,12.84,14.39,12.15,0.0,0.0,0.0,0.0,0.0,0.0,71.91,28.09,0.0,0.0,0.0,0.0,16,0,39,46
VA,Rockbridge,51163,-79.4475,37.8146,22.354,3.11,3.31,6.42,0.23,1.51,1.74,15.934,80.0,0.51,79.0,1.27,1.78,0.31,0.0,0.31,0.08,0.0,0.07,0.36,0.03,0.0,0.03,0.14,0.05,0.0,0.04,0.22,0.54,0.0,0.0,0.0,0.01,0.03,0.04,0.0,0.0,0.0,0.0,0.0,0.0,0.0,0.0,0.0,0.0,0.0,0.0,0.0,0.0,0.0,0.0,0.0,0.0,0.0,0.0,0.0,2.27,1.71,3.98,0.07,22444.0,48901.0,12.25,6.9,7.02,12.03,13.44,11.49,0.0,0.0,0.0,0.0,0.0,0.0,87.05,12.95,0.0,0.0,0.0,0.0,4,27,4,40
VA,Russell,51167,-82.0956,36.9338,27.891,3.374,14.646,18.02,0.32,0.86,1.18,9.871,80.0,1.44,80.0,0.79,2.23,0.0,0.0,0.0,0.03,0.0,0.03,0.06,0.0,0.0,0.0,0.01,0.03,0.0,0.03,0.05,0.71,0.0,0.0,0.0,0.0,0.22,0.22,0.0,3.21,3.21,0.0,0.0,2.25,461.98,0.0,0.0,0.0,0.0,0.0,0.0,0.0,0.0,3.21,3.21,0.0,0.0,2.25,461.98,1.21,4.93,6.14,2.28,28245.0,35045.0,12.25,7.45,6.67,12.02,13.56,11.66,0.0,0.0,0.0,0.0,0.0,0.0,79.76,20.24,0.0,0.0,0.0,0.0,4,27,4,24
VA,Scott,51169,-82.603,36.7142,22.126,1.41,14.326,15.736,0.01,1.11,1.12,6.39,80.0,1.26,80.0,0.51,1.77,0.0,0.0,0.0,0.04,0.0,0.04,0.11,0.01,0.0,0.01,0.06,0.03,0.0,0.03,0.05,0.37,0.0,0.0,0.0,0.0,0.0,0.0,0.0,0.0,0.0,0.0,0.0,0.0,0.0,0.0,0.0,0.0,0.0,0.0,0.0,0.0,0.0,0.0,0.0,0.0,0.0,0.0,0.0,0.57,1.47,2.04,0.04,22570.0,37240.0,13.36,8.48,8.24,13.21,15.14,12.77,0.0,0.0,0.0,0.0,0.0,0.0,86.38,13.62,2.82,0.0,0.0,0.0,4,27,4,45
VA,Smyth,51173,-81.537,36.8439,31.47,11.39,12.545,23.935,0.2,1.99,2.19,7.535,80.0,1.91,80.0,0.6,2.51,0.0,0.0,0.0,0.05,0.0,0.04,0.24,0.0,0.0,0.0,0.02,0.05,0.0,0.04,0.22,0.84,0.0,3.31,3.31,0.0,0.0,0.0,0.0,0.0,0.0,0.0,0.0,0.0,0.0,0.0,0.0,0.0,0.0,0.0,0.0,0.0,0.0,0.0,0.0,0.0,0.0,0.0,0.0,1.03,5.96,6.99,0.04,31734.0,37983.0,11.68,6.8,5.58,11.41,12.68,11.03,0.0,0.0,0.0,0.0,0.0,0.0,78.8,21.2,0.0,0.0,0.0,0.0,4,27,4,45
VA,Tazewell,51185,-81.5606,37.125,42.899,0.167,33.638,33.805,0.0,3.79,3.79,9.094,80.0,2.7,80.0,0.73,3.43,0.0,0.0,0.0,0.09,0.0,0.08,0.29,0.0,0.0,0.0,0.02,0.09,0.0,0.08,0.27,0.5,0.0,0.0,0.0,0.02,0.18,0.2,0.0,0.0,0.0,0.0,0.0,0.0,0.0,0.0,0.0,0.0,0.0,0.0,0.0,0.0,0.0,0.0,0.0,0.0,0.0,0.0,0.0,0.81,4.5,5.31,0.08,43870.0,37664.0,11.43,6.62,5.16,11.15,12.38,10.82,0.0,0.0,0.0,0.0,0.0,0.0,83.9,16.1,0.0,0.0,0.0,0.0,36,27,4,45
VA,Washington,51191,-81.9596,36.7245,54.591,0.254,48.75,49.004,0.0,11.77,11.77,5.587,81.0,3.92,80.0,0.45,4.37,0.0,0.0,0.0,0.5,0.0,0.43,0.87,0.07,0.0,0.06,0.22,0.43,0.0,0.37,0.65,0.97,0.0,62.21,62.21,0.01,0.04,0.05,0.0,0.0,0.0,0.0,0.0,0.0,0.0,0.0,0.0,0.0,0.0,0.0,0.0,0.0,0.0,0.0,0.0,0.0,0.0,0.0,0.0,0.75,75.2,75.95,0.43,54759.0,43310.0,12.63,7.66,7.05,12.4,13.98,11.97,0.0,0.0,0.0,0.0,0.0,0.0,78.65,21.35,0.0,0.0,0.0,0.0,26,0,31,34
VA,Wise,51195,-82.6212,36.9752,39.718,0.0,38.789,38.789,0.0,4.9,4.9,0.929,75.0,3.1,80.0,0.07,3.17,0.0,0.0,0.0,0.08,0.0,0.07,0.17,0.0,0.0,0.0,0.01,0.08,0.0,0.07,0.16,0.04,0.0,0.0,0.0,0.56,0.78,1.34,0.0,0.0,0.0,0.0,0.0,0.0,0.0,0.0,0.0,0.0,0.0,0.0,0.0,0.0,0.0,0.0,0.0,0.0,0.0,0.0,0.0,0.65,5.78,6.43,0.07,40530.0,37407.0,12.22,7.61,6.72,12.01,13.63,11.72,0.0,0.0,0.0,0.0,0.0,0.0,0.0,0.0,0.0,0.0,0.0,0.0,36,27,4,45
VA,Wythe,51197,-81.0786,36.9171,29.119,2.646,14.878,17.524,0.0,4.35,4.35,11.595,80.0,1.4,80.0,0.93,2.33,0.0,0.0,0.0,0.08,0.0,0.07,0.18,0.02,0.0,0.02,0.07,0.06,0.0,0.05,0.11,0.81,0.03,3.33,3.36,0.04,0.17,0.21,0.0,0.0,0.0,0.0,0.0,0.0,0.0,0.0,0.0,0.0,0.0,0.0,0.0,0.0,0.0,0.0,0.0,0.0,0.0,0.0,0.0,1.75,7.99,9.74,0.07,29190.0,41360.0,11.88,6.72,5.54,11.6,12.87,11.12,0.0,0.0,0.0,0.0,0.0,0.0,78.77,21.23,0.0,0.0,0.0,0.0,36,27,4,1
VA,Alleghany,51005,-80.007,37.7876,15.677,0.092,12.489,12.581,0.0,0.91,0.91,3.096,81.0,1.01,80.0,0.25,1.26,0.3,39.9,40.2,0.11,0.0,0.09,0.23,0.0,0.0,0.0,0.01,0.11,0.0,0.09,0.22,0.05,0.0,0.0,0.0,0.0,0.01,0.01,0.0,0.0,0.0,0.0,0.0,0.0,0.0,0.0,0.0,0.0,0.0,0.0,0.0,0.0,0.0,0.0,0.0,0.0,0.0,0.0,0.0,0.59,40.94,41.53,0.09,16066.0,45007.0,11.48,6.51,6.2,11.24,12.49,10.86,0.0,0.0,0.0,0.0,0.0,0.0,89.57,10.43,0.0,0.0,0.0,0.0,4,27,4,34
VA,Carroll,51035,-80.7339,36.7316,29.724,2.921,10.789,13.71,1.43,0.27,1.7,16.014,80.0,1.1,80.0,1.28,2.38,0.0,0.0,0.0,0.48,0.0,0.4,1.47,0.31,0.0,0.26,1.09,0.17,0.0,0.14,0.38,0.59,0.0,0.0,0.0,0.0,0.0,0.0,0.0,0.0,0.0,0.0,0.0,0.0,0.0,0.0,0.0,0.0,0.0,0.0,0.0,0.0,0.0,0.0,0.0,0.0,0.0,0.0,0.0,2.82,1.23,4.05,0.4,29856.0,35000.0,12.38,6.94,6.28,12.08,13.43,11.5,0.0,0.0,0.0,0.0,0.0,0.0,68.25,31.75,0.0,0.0,0.0,0.0,4,27,4,24
VA,Campbell,51031,-79.0963,37.2056,55.086,1.313,27.855,29.168,0.04,4.42,4.46,25.918,80.0,2.33,80.0,2.07,4.4,0.0,0.0,0.0,0.16,0.0,0.14,0.45,0.08,0.0,0.07,0.29,0.08,0.0,0.07,0.16,0.46,0.0,0.11,0.11,0.02,1.31,1.33,0.0,0.58,0.58,0.0,0.0,0.42,268.7,0.0,0.0,0.0,0.0,0.0,0.0,0.0,0.0,0.58,0.58,0.0,0.0,0.42,268.7,2.19,6.98,9.17,0.56,55012.0,47699.0,14.34,8.24,8.68,14.16,16.04,13.21,0.0,0.0,0.0,0.0,0.0,0.0,72.05,27.95,0.0,0.0,0.0,0.0,36,27,4,11
VA,Henry,51089,-79.8739,36.6828,51.881,0.707,29.9,30.607,0.03,2.83,2.86,21.274,80.0,2.45,80.0,1.7,4.15,0.01,0.0,0.01,0.11,0.0,0.09,0.68,0.04,0.0,0.03,0.14,0.07,0.0,0.06,0.54,0.07,0.08,0.0,0.08,0.0,0.31,0.31,0.0,0.0,0.0,0.0,0.0,0.0,0.0,0.0,0.0,0.0,0.0,0.0,0.0,0.0,0.0,0.0,0.0,0.0,0.0,0.0,0.0,1.84,3.3,5.14,0.09,52580.0,35293.0,14.72,8.49,8.94,14.52,16.48,13.5,0.0,0.0,0.0,0.0,0.0,0.0,57.92,42.08,0.0,0.0,0.0,0.0,36,27,4,24
VA,Montgomery,51121,-80.3869,37.174,97.653,1.803,69.221,71.024,0.11,6.81,6.92,26.629,80.0,5.68,80.0,2.13,7.81,0.04,18.49,18.53,0.38,0.0,0.32,0.68,0.24,0.0,0.2,0.35,0.14,0.0,0.12,0.33,0.4,0.0,0.0,0.0,0.0,0.1,0.1,0.0,0.0,0.0,0.0,0.0,0.0,0.0,0.0,0.0,0.0,0.0,0.0,0.0,0.0,0.0,0.0,0.0,0.0,0.0,0.0,0.0,2.44,26.02,28.46,0.32,96467.0,46663.0,12.33,7.01,6.21,12.08,13.48,11.49,0.0,0.0,0.0,0.0,0.0,0.0,75.11,24.89,0.0,0.0,0.0,0.0,23,27,31,39
VA,Halifax,51083,-78.9367,36.767,35.125,1.416,9.364,10.78,0.05,2.05,2.1,24.345,80.0,0.86,80.0,1.95,2.81,0.0,0.0,0.0,0.78,0.0,0.66,2.38,0.67,0.0,0.57,2.16,0.11,0.0,0.09,0.22,0.31,0.0,0.0,0.0,0.03,0.11,0.14,0.03,10.53,10.56,0.0,0.0,9.38,5740.17,0.0,0.0,0.0,0.0,0.0,0.0,0.0,0.03,10.53,10.56,0.0,0.0,9.38,5740.17,2.17,13.67,15.84,10.04,35506.0,35240.0,15.51,9.2,9.68,15.38,17.59,14.21,0.0,0.0,0.0,0.0,0.0,0.0,83.84,16.16,0.0,0.0,0.0,0.0,4,27,4,24
VA,Grayson,51077,-81.225,36.6566,16.012,1.841,1.184,3.025,0.11,0.0,0.11,12.987,80.0,0.24,79.0,1.04,1.28,0.0,0.0,0.0,0.08,0.0,0.07,0.15,0.02,0.0,0.02,0.04,0.06,0.0,0.05,0.11,0.42,0.0,0.0,0.0,0.0,0.01,0.01,0.0,0.0,0.0,0.0,0.0,0.0,0.0,0.0,0.0,0.0,0.0,0.0,0.0,0.0,0.0,0.0,0.0,0.0,0.0,0.0,0.0,1.22,0.44,1.66,0.07,15573.0,29942.0,11.83,6.72,5.65,11.53,12.79,11.1,0.0,0.0,0.0,0.0,0.0,0.0,73.19,26.8,0.0,0.0,0.0,0.0,4,27,4,48
VA,Giles,51071,-80.7037,37.3141,16.708,10.309,0.0,10.309,1.12,0.0,1.12,6.399,80.0,0.82,80.0,0.51,1.33,13.4,52.65,66.05,0.09,0.0,0.08,0.19,0.01,0.0,0.01,0.03,0.08,0.0,0.07,0.16,0.18,0.0,0.0,0.0,1.33,0.58,1.91,0.0,42.65,42.65,0.0,0.0,0.21,67.58,0.0,42.65,42.65,0.0,0.0,0.21,67.58,0.0,0.0,0.0,0.0,0.0,0.0,0.0,16.4,96.11,112.51,0.29,16907.0,46390.0,11.73,6.66,5.68,11.46,12.71,10.99,0.0,0.0,0.0,0.0,0.0,0.0,89.81,10.19,0.0,0.0,0.0,0.0,4,27,21,11
VA,Franklin,51067,-79.881,36.9919,56.264,7.758,8.473,16.231,1.0,0.76,1.76,40.033,80.0,1.3,80.0,3.2,4.5,0.0,0.0,0.0,0.55,0.0,0.47,1.22,0.27,0.0,0.23,0.89,0.28,0.0,0.24,0.33,0.79,0.0,0.0,0.0,0.0,0.0,0.0,0.0,0.0,0.0,0.0,0.0,0.0,0.0,0.0,0.0,0.0,0.0,0.0,0.0,0.0,0.0,0.0,0.0,0.0,0.0,0.0,0.0,4.29,2.01,6.3,0.47,56315.0,46870.0,13.98,8.02,8.23,13.76,15.55,12.89,0.0,0.0,0.0,0.0,0.0,0.0,55.97,44.03,0.0,0.0,0.0,0.0,4,0,4,11
VA,Floyd,51063,-80.3626,36.9315,15.651,2.36,0.0,2.36,0.11,0.0,0.11,13.291,80.0,0.19,81.0,1.06,1.25,0.0,0.0,0.0,0.07,0.0,0.06,0.3,0.06,0.0,0.05,0.19,0.01,0.0,0.01,0.11,0.5,0.0,0.0,0.0,0.0,0.0,0.0,0.0,0.0,0.0,0.0,0.0,0.0,0.0,0.0,0.0,0.0,0.0,0.0,0.0,0.0,0.0,0.0,0.0,0.0,0.0,0.0,0.0,1.25,0.49,1.74,0.06,15523.0,48005.0,12.22,6.74,5.97,11.92,13.21,11.33,0.0,0.0,0.0,0.0,0.0,0.0,60.98,39.02,0.0,0.0,0.0,0.0,4,27,4,11
VA,Dickenson,51051,-82.3503,37.1258,15.115,0.0,13.603,13.603,0.09,4.87,4.96,1.512,79.0,1.09,80.0,0.12,1.21,0.0,0.0,0.0,0.03,0.0,0.03,0.05,0.0,0.0,0.0,0.0,0.03,0.0,0.03,0.05,0.02,0.0,0.0,0.0,0.11,1.13,1.24,0.0,0.0,0.0,0.0,0.0,0.0,0.0,0.0,0.0,0.0,0.0,0.0,0.0,0.0,0.0,0.0,0.0,0.0,0.0,0.0,0.0,0.32,6.05,6.37,0.03,15463.0,33624.0,12.81,7.91,7.02,12.62,14.38,12.18,0.0,0.0,0.0,0.0,0.0,0.0,85.03,14.97,2.0,0.0,0.0,0.0,36,27,4,8
VA,Craig,51045,-80.2123,37.4813,5.211,1.238,0.0,1.238,0.0,0.0,0.0,3.973,81.0,0.1,81.0,0.32,0.42,0.0,0.09,0.09,0.0,0.0,0.0,0.01,0.0,0.0,0.0,0.01,0.0,0.0,0.0,0.0,0.1,0.0,3.99,3.99,0.05,0.22,0.27,0.0,0.0,0.0,0.0,0.0,0.0,0.0,0.0,0.0,0.0,0.0,0.0,0.0,0.0,0.0,0.0,0.0,0.0,0.0,0.0,0.0,0.47,4.3,4.77,0.0,5212.0,44330.0,11.76,6.72,6.11,11.52,12.82,11.07,0.0,0.0,0.0,0.0,0.0,0.0,88.37,11.63,0.0,0.0,0.0,0.0,4,27,4,34
VA,Charlotte,51037,-78.6616,37.0116,12.201,2.711,0.8,3.511,0.12,0.12,0.24,8.69,81.0,0.28,80.0,0.7,0.98,0.0,0.0,0.0,0.24,0.0,0.21,0.81,0.21,0.0,0.18,0.76,0.03,0.0,0.03,0.05,0.27,0.0,0.0,0.0,0.0,0.02,0.02,0.0,0.0,0.0,0.0,0.0,0.0,0.0,0.0,0.0,0.0,0.0,0.0,0.0,0.0,0.0,0.0,0.0,0.0,0.0,0.0,0.0,0.85,0.62,1.47,0.21,12313.0,35079.0,15.11,9.03,9.27,15.0,17.17,13.93,0.0,0.0,0.0,0.0,0.0,0.0,92.09,7.91,0.0,0.0,0.0,0.0,4,27,4,24
VA,Buckingham,51029,-78.5287,37.5722,17.032,0.237,5.759,5.996,0.0,0.36,0.36,11.036,80.0,0.48,80.0,0.88,1.36,0.0,0.0,0.0,0.0,0.0,0.0,0.02,0.0,0.0,0.0,0.02,0.0,0.0,0.0,0.0,0.38,0.0,0.0,0.0,0.03,0.08,0.11,0.0,3.38,3.38,0.0,0.0,1.81,3459.46,0.0,0.0,0.0,0.0,0.0,0.0,0.0,0.0,3.38,3.38,0.0,0.0,1.81,3459.46,0.96,4.15,5.11,1.81,17068.0,40331.0,14.53,8.38,8.89,14.38,16.34,13.39,0.0,0.0,0.0,0.0,0.0,0.0,91.22,8.78,0.0,0.0,0.0,0.0,4,27,4,1
VA,Buchanan,51027,-82.036,37.2666,22.776,0.0,19.829,19.829,0.0,0.0,0.0,2.947,81.0,1.59,80.0,0.24,1.83,0.0,0.3,0.3,0.0,0.0,0.0,0.0,0.0,0.0,0.0,0.0,0.0,0.0,0.0,0.0,0.01,0.0,0.0,0.0,0.26,1.03,1.29,0.0,0.0,0.0,0.0,0.0,0.0,0.0,0.0,0.0,0.0,0.0,0.0,0.0,0.0,0.0,0.0,0.0,0.0,0.0,0.0,0.0,0.5,1.34,1.84,0.0,23486.0,29679.0,12.68,7.72,6.7,12.47,14.16,12.02,0.0,0.0,0.0,0.0,0.0,0.0,86.88,13.12,0.72,0.0,0.0,0.0,4,27,4,48
VA,Botetourt,51023,-79.8123,37.5571,33.347,11.476,0.175,11.651,0.96,4.5,5.46,21.696,80.0,0.93,80.0,1.74,2.67,0.0,0.0,0.0,0.05,0.0,0.05,0.32,0.02,0.0,0.02,0.05,0.03,0.0,0.03,0.27,0.32,0.0,0.0,0.0,0.0,0.3,0.3,0.0,0.0,0.0,0.0,0.0,0.0,0.0,0.0,0.0,0.0,0.0,0.0,0.0,0.0,0.0,0.0,0.0,0.0,0.0,0.0,0.0,2.77,5.1,7.87,0.05,33155.0,60454.0,12.82,7.4,7.53,12.61,14.19,12.0,0.0,0.0,0.0,0.0,0.0,0.0,84.12,15.88,0.0,0.0,0.0,0.0,36,27,4,46
VA,Bland,51021,-81.1302,37.134,6.561,0.531,1.735,2.266,0.04,0.0,0.04,4.295,79.0,0.18,79.0,0.34,0.52,0.0,0.0,0.0,0.06,0.0,0.05,0.11,0.0,0.0,0.0,0.0,0.06,0.0,0.05,0.11,0.2,0.0,0.0,0.0,0.0,0.2,0.2,0.0,0.0,0.0,0.0,0.0,0.0,0.0,0.0,0.0,0.0,0.0,0.0,0.0,0.0,0.0,0.0,0.0,0.0,0.0,0.0,0.0,0.41,0.43,0.84,0.05,6662.0,45294.0,11.36,6.48,4.99,11.07,12.25,10.71,0.0,0.0,0.0,0.0,0.0,0.0,89.07,10.93,0.0,0.0,0.0,0.0,4,27,4,34
VA,Bedford,51019,-79.5242,37.3152,77.724,2.564,29.202,31.766,0.02,1.52,1.54,45.958,80.0,2.54,80.0,3.68,6.22,0.0,14.24,14.24,0.18,0.0,0.16,0.97,0.03,0.0,0.03,0.1,0.15,0.0,0.13,0.87,0.66,0.0,0.0,0.0,1.95,0.08,2.03,0.0,0.0,0.0,0.0,0.0,0.0,0.0,0.0,0.0,0.0,0.0,0.0,0.0,0.0,0.0,0.0,0.0,0.0,0.0,0.0,0.0,5.73,16.6,22.33,0.16,76463.0,56316.0,13.89,7.99,8.38,13.7,15.49,12.85,0.0,0.0,0.0,0.0,0.0,0.0,66.81,33.19,0.0,0.0,0.0,0.0,36,27,4,22
VA,Bath,51017,-79.7411,38.0587,4.47,4.014,0.0,4.014,0.18,0.11,0.29,0.456,88.0,0.32,80.0,0.04,0.36,0.0,0.0,0.0,0.17,0.0,0.14,0.35,0.01,0.0,0.0,0.02,0.16,0.0,0.14,0.33,0.08,0.0,13.34,13.34,0.0,0.0,0.0,0.0,0.0,0.0,0.0,0.0,0.0,0.0,0.0,0.0,0.0,0.0,0.0,0.0,0.0,0.0,0.0,0.0,0.0,0.0,0.0,0.0,0.3,13.62,13.92,0.14,4583.0,43646.0,10.88,5.85,5.38,10.61,11.62,10.23,0.0,0.0,0.0,0.0,0.0,0.0,93.03,6.97,0.0,0.0,0.0,0.0,4,27,4,34
VA,Appomattox,51011,-78.8121,37.3722,15.414,0.236,1.761,1.997,0.0,0.0,0.0,13.417,80.0,0.16,80.0,1.07,1.23,0.0,0.0,0.0,0.11,0.0,0.1,0.27,0.03,0.0,0.03,0.11,0.08,0.0,0.07,0.16,0.26,0.0,0.0,0.0,0.0,0.02,0.02,0.0,0.0,0.0,0.0,0.0,0.0,0.0,0.0,0.0,0.0,0.0,0.0,0.0,0.0,0.0,0.0,0.0,0.0,0.0,0.0,0.0,1.09,0.37,1.46,0.1,15208.0,48823.0,14.35,8.25,8.67,14.17,16.07,13.23,0.0,0.0,0.0,0.0,0.0,0.0,80.5,19.5,0.0,0.0,0.0,0.0,4,27,4,40
VA,Amherst,51009,-79.1451,37.6048,31.914,0.168,18.617,18.785,0.0,12.03,12.03,13.129,80.0,1.5,80.0,1.05,2.55,0.0,5.57,5.57,0.09,0.0,0.08,0.33,0.0,0.0,0.0,0.0,0.09,0.0,0.08,0.33,0.23,0.0,0.0,0.0,0.02,0.0,0.02,0.0,0.0,0.0,0.0,0.0,0.0,0.0,0.0,0.0,0.0,0.0,0.0,0.0,0.0,0.0,0.0,0.0,0.0,0.0,0.0,0.0,1.1,17.89,18.99,0.08,32148.0,47558.0,13.87,8.06,8.46,13.71,15.54,12.89,0.0,0.0,0.0,0.0,0.0,0.0,79.99,20.01,0.0,0.0,0.0,0.0,26,27,31,11
VA,Lee,51105,-83.1285,36.7055,24.742,4.726,15.494,20.22,0.0,2.34,2.34,4.522,80.0,1.62,80.0,0.36,1.98,0.0,0.0,0.0,0.08,0.0,0.07,0.17,0.02,0.0,0.02,0.06,0.06,0.0,0.05,0.11,0.36,0.0,0.0,0.0,0.01,0.02,0.03,0.0,0.0,0.0,0.0,0.0,0.0,0.0,0.0,0.0,0.0,0.0,0.0,0.0,0.0,0.0,0.0,0.0,0.0,0.0,0.0,0.0,0.41,2.76,3.17,0.07,25206.0,31086.0,13.22,8.41,7.9,13.07,14.99,12.63,0.0,0.0,0.0,0.0,0.0,0.0,88.19,11.81,3.8,0.0,0.0,0.0,4,27,4,8
VT,Lamoille,50015,-72.6414,44.6057,25.235,10.165,3.046,13.211,1.2,0.09,1.29,12.024,38.0,0.5,38.0,0.46,0.96,0.11,0.01,0.12,0.13,0.0,0.12,0.3,0.02,0.0,0.01,0.1,0.11,0.0,0.11,0.2,0.12,0.0,0.0,0.0,0.0,0.27,0.27,0.0,0.0,0.0,0.0,0.0,0.0,0.0,0.0,0.0,0.0,0.0,0.0,0.0,0.0,0.0,0.0,0.0,0.0,0.0,0.0,0.0,1.89,0.5,2.39,0.12,25027.0,50939.0,5.37,1.12,-1.48,5.12,4.77,5.04,0.0,0.0,0.0,0.0,0.0,0.0,77.79,22.21,0.0,0.0,0.0,0.0,4,27,4,40
VT,Orange,50017,-72.3769,44.0056,28.899,9.966,0.0,9.966,0.84,1.32,2.16,18.933,53.0,0.53,53.0,1.01,1.54,0.02,0.05,0.07,0.11,0.0,0.1,0.32,0.05,0.0,0.04,0.2,0.06,0.0,0.06,0.12,0.4,0.0,0.0,0.0,0.0,0.04,0.04,0.0,0.0,0.0,0.0,0.0,0.0,0.0,0.0,0.0,0.0,0.0,0.0,0.0,0.0,0.0,0.0,0.0,0.0,0.0,0.0,0.0,2.21,1.58,3.79,0.1,28929.0,53869.0,5.87,1.24,-1.09,5.6,5.25,5.39,0.0,0.0,0.0,0.0,0.0,0.0,79.87,20.13,0.16,0.0,0.0,0.0,4,27,4,4
VT,Bennington,50003,-73.0929,43.0355,36.317,8.49,16.67,25.16,0.98,2.32,3.3,11.157,47.0,1.17,47.0,0.52,1.69,0.06,0.4,0.46,0.38,0.0,0.37,0.71,0.13,0.0,0.13,0.33,0.25,0.0,0.24,0.38,0.08,0.88,1.32,2.2,0.0,0.17,0.17,0.0,0.0,0.0,0.0,0.0,0.0,0.0,0.0,0.0,0.0,0.0,0.0,0.0,0.0,0.0,0.0,0.0,0.0,0.0,0.0,0.0,2.66,4.45,7.11,0.37,36589.0,49573.0,6.8,1.88,-0.21,6.49,6.28,6.19,0.0,0.0,0.0,0.0,0.0,0.0,50.1,49.9,10.86,0.0,0.0,0.0,36,27,4,40
VT,Orleans,50019,-72.2438,44.8288,27.1,11.52,2.444,13.964,1.28,0.35,1.63,13.136,43.0,0.59,42.0,0.56,1.15,0.07,0.62,0.69,0.17,0.0,0.15,0.45,0.05,0.0,0.04,0.18,0.12,0.0,0.11,0.27,0.84,0.0,0.0,0.0,0.0,0.27,0.27,0.0,0.0,0.0,0.0,0.0,0.0,0.0,0.0,0.0,0.0,0.0,0.0,0.0,0.0,0.0,0.0,0.0,0.0,0.0,0.0,0.0,2.59,1.57,4.16,0.15,27146.0,42831.0,5.1,0.96,-2.35,4.86,4.46,4.79,0.0,0.0,0.0,0.0,0.0,0.0,87.85,12.15,0.0,0.0,0.0,0.0,4,27,4,1
VT,Washington,50023,-72.6149,44.2734,58.612,10.855,26.085,36.94,0.61,1.24,1.85,21.672,42.0,1.56,42.0,0.91,2.47,0.15,0.69,0.84,0.18,0.0,0.18,0.43,0.04,0.0,0.04,0.2,0.14,0.0,0.14,0.23,0.21,0.0,0.0,0.0,0.0,0.32,0.32,0.0,0.0,0.0,0.0,0.0,0.0,0.0,0.0,0.0,0.0,0.0,0.0,0.0,0.0,0.0,0.0,0.0,0.0,0.0,0.0,0.0,1.86,2.45,4.31,0.18,59132.0,58788.0,5.56,1.18,-1.33,5.3,4.95,5.19,0.0,0.0,0.0,0.0,0.0,0.0,74.87,25.13,0.0,0.0,0.0,0.0,4,27,4,46
VT,Grand Isle,50013,-73.2948,44.7968,6.861,0.0,4.557,4.557,0.03,0.47,0.5,2.304,43.0,0.2,44.0,0.1,0.3,0.0,0.01,0.01,0.1,0.0,0.1,0.22,0.02,0.0,0.02,0.06,0.08,0.0,0.08,0.16,0.15,0.0,4.5,4.5,0.0,0.0,0.0,0.0,0.0,0.0,0.0,0.0,0.0,0.0,0.0,0.0,0.0,0.0,0.0,0.0,0.0,0.0,0.0,0.0,0.0,0.0,0.0,0.0,0.25,5.11,5.36,0.1,6952.0,62608.0,7.37,2.79,-0.06,7.12,7.28,6.87,0.0,0.0,0.0,0.0,0.0,0.0,59.0,41.0,0.0,0.0,0.0,0.0,4,27,4,10
WV,Raleigh,54081,-81.2486,37.7714,77.51,20.272,51.425,71.697,2.8,7.09,9.89,5.813,81.0,6.05,84.0,0.47,6.52,0.0,0.24,0.24,0.31,0.0,0.26,0.34,0.0,0.0,0.0,0.04,0.31,0.0,0.26,0.3,0.03,0.0,4.33,4.33,0.6,1.93,2.53,0.0,0.0,0.0,0.0,0.0,0.0,0.0,0.0,0.0,0.0,0.0,0.0,0.0,0.0,0.0,0.0,0.0,0.0,0.0,0.0,0.0,3.88,13.92,17.8,0.26,78493.0,41032.0,11.23,6.66,4.77,10.98,12.27,10.72,0.0,0.0,0.0,0.0,0.0,0.0,88.38,11.62,0.2,0.0,0.0,0.0,26,0,31,1
WV,Putnam,54079,-81.909,38.5086,56.848,0.0,46.388,46.388,0.0,2.61,2.61,10.46,80.0,3.89,84.0,0.84,4.73,0.0,0.0,0.0,0.11,0.0,0.09,0.23,0.0,0.0,0.0,0.12,0.11,0.0,0.09,0.11,0.04,0.0,0.0,0.0,0.0,0.0,0.0,0.0,33.27,33.27,0.0,0.02,18.42,14072.15,0.0,0.0,0.0,0.0,0.0,0.0,0.0,0.0,33.27,33.27,0.0,0.02,18.42,14072.15,0.84,36.03,36.87,18.51,56596.0,56774.0,13.49,7.82,7.58,13.33,15.14,12.54,0.0,0.0,0.0,0.0,0.0,0.0,83.03,16.97,0.0,0.0,0.0,0.0,36,27,4,22
WV,Preston,54077,-79.6681,39.4693,33.94,10.064,9.961,20.025,1.11,1.1,2.21,13.915,80.0,1.91,95.0,1.11,3.02,0.01,0.0,0.01,0.09,0.0,0.08,0.15,0.0,0.0,0.0,0.06,0.09,0.0,0.08,0.09,0.2,0.0,0.0,0.0,0.0,0.02,0.02,0.0,0.0,0.0,0.0,0.0,0.0,0.0,0.0,0.0,0.0,0.0,0.0,0.0,0.0,0.0,0.0,0.0,0.0,0.0,0.0,0.0,2.28,1.36,3.64,0.08,33809.0,45064.0,10.11,5.6,3.11,9.85,10.77,9.54,0.0,0.0,0.0,0.0,0.0,0.0,67.76,32.24,0.0,0.0,0.0,0.0,4,27,4,34
WV,Pocahontas,54075,-80.0077,38.3318,8.607,0.306,3.464,3.77,0.03,0.35,0.38,4.837,81.0,0.24,64.0,0.39,0.63,0.0,1.07,1.07,0.07,0.0,0.06,0.07,0.0,0.0,0.0,0.01,0.07,0.0,0.06,0.06,0.11,0.0,1.81,1.81,0.0,0.0,0.0,0.0,0.0,0.0,0.0,0.0,0.0,0.0,0.0,0.0,0.0,0.0,0.0,0.0,0.0,0.0,0.0,0.0,0.0,0.0,0.0,0.0,0.42,3.41,3.83,0.06,8697.0,36827.0,9.29,5.21,2.91,9.03,9.78,8.95,0.0,0.0,0.0,0.0,0.0,0.0,81.67,18.33,0.0,0.0,0.0,0.0,4,27,4,24
WV,Pleasants,54073,-81.1606,39.3709,7.674,5.525,0.0,5.525,0.57,0.0,0.57,2.149,79.0,0.38,69.0,0.17,0.55,4.65,0.0,4.65,0.02,0.0,0.02,0.02,0.0,0.0,0.0,0.0,0.02,0.0,0.02,0.02,0.01,0.0,0.0,0.0,0.0,0.0,0.0,0.0,24.26,24.26,0.0,0.02,16.66,7047.53,0.0,0.0,0.0,0.0,0.0,0.0,0.0,0.0,24.26,24.26,0.0,0.02,16.66,7047.53,5.39,24.29,29.68,16.68,7636.0,44288.0,12.19,6.92,6.04,12.0,13.49,11.39,0.0,0.0,0.0,0.0,0.0,0.0,100.0,0.0,0.0,0.0,0.0,0.0,4,27,4,34
WV,Ohio,54069,-80.6189,40.0969,43.066,6.629,35.016,41.645,1.23,6.47,7.7,1.421,77.0,3.92,94.0,0.11,4.03,0.0,0.0,0.0,0.19,0.0,0.16,0.2,0.0,0.0,0.0,0.0,0.19,0.0,0.16,0.2,0.04,0.0,0.0,0.0,0.32,1.14,1.46,0.0,0.0,0.0,0.0,0.0,0.0,0.0,0.0,0.0,0.0,0.0,0.0,0.0,0.0,0.0,0.0,0.0,0.0,0.0,0.0,0.0,1.68,7.82,9.5,0.16,43637.0,40569.0,11.29,6.01,4.61,11.05,12.19,10.41,0.0,0.0,0.0,0.0,0.0,0.0,92.31,7.69,0.0,0.0,0.0,0.0,23,27,31,1
WV,Nicholas,54067,-80.7993,38.2917,25.594,0.0,18.249,18.249,0.0,2.78,2.78,7.345,80.0,1.91,105.0,0.59,2.5,0.0,0.0,0.0,0.04,0.0,0.03,0.05,0.0,0.0,0.0,0.01,0.04,0.0,0.03,0.04,0.06,0.0,0.0,0.0,0.04,0.52,0.56,0.0,0.0,0.0,0.0,0.0,0.0,0.0,0.0,0.0,0.0,0.0,0.0,0.0,0.0,0.0,0.0,0.0,0.0,0.0,0.0,0.0,0.63,3.4,4.03,0.03,25930.0,39171.0,11.04,6.53,4.41,10.8,12.06,10.51,0.0,0.0,0.0,0.0,0.0,0.0,81.54,18.46,0.0,0.0,0.0,0.0,36,27,4,45
WV,Monroe,54063,-80.5505,37.5604,13.506,1.917,4.728,6.645,0.14,0.35,0.49,6.861,80.0,0.52,78.0,0.55,1.07,0.01,0.08,0.09,0.04,0.0,0.03,0.06,0.0,0.0,0.0,0.02,0.04,0.0,0.03,0.04,0.25,0.0,0.13,0.13,0.0,0.0,0.0,0.0,0.0,0.0,0.0,0.0,0.0,0.0,0.0,0.0,0.0,0.0,0.0,0.0,0.0,0.0,0.0,0.0,0.0,0.0,0.0,0.0,0.73,0.82,1.55,0.03,13525.0,36918.0,11.41,6.53,5.43,11.16,12.38,10.75,0.0,0.0,0.0,0.0,0.0,0.0,94.79,5.21,0.0,0.0,0.0,0.0,4,27,4,24
WV,Monongalia,54061,-80.0465,39.6303,104.236,0.0,98.503,98.503,0.0,10.87,10.87,5.733,80.0,8.03,82.0,0.46,8.49,0.0,0.0,0.0,0.34,0.0,0.29,0.35,0.0,0.0,0.0,0.01,0.34,0.0,0.29,0.34,0.06,0.0,9.22,9.22,0.25,1.88,2.13,0.0,87.26,87.26,0.0,0.21,10.45,10758.05,0.0,72.78,72.78,0.0,0.0,0.7,405.91,0.0,14.48,14.48,0.0,0.21,9.75,10352.14,0.73,109.61,110.34,10.74,101668.0,45467.0,11.12,6.25,4.69,10.89,12.1,10.44,0.0,0.0,0.0,0.0,0.0,0.0,91.98,8.02,0.0,0.0,0.0,0.0,26,0,21,32
WV,Mingo,54059,-82.1346,37.7264,25.292,0.0,13.278,13.278,0.0,4.02,4.02,12.014,80.0,1.47,111.0,0.96,2.43,0.0,0.0,0.0,0.07,0.0,0.06,0.07,0.0,0.0,0.0,0.0,0.07,0.0,0.06,0.07,0.0,0.0,0.0,0.0,0.5,1.2,1.7,0.0,0.0,0.0,0.0,0.0,0.0,0.0,0.0,0.0,0.0,0.0,0.0,0.0,0.0,0.0,0.0,0.0,0.0,0.0,0.0,0.0,1.46,5.29,6.75,0.06,25931.0,33221.0,13.39,8.03,7.48,13.21,15.06,12.56,0.0,0.0,0.0,0.0,0.0,0.0,81.9,18.1,2.96,0.0,0.0,0.0,36,27,4,8
WV,Mercer,54055,-81.1114,37.4055,61.164,2.373,46.435,48.808,0.17,3.41,3.58,12.356,80.0,3.5,72.0,0.99,4.49,0.0,0.11,0.11,0.04,0.0,0.03,0.05,0.0,0.0,0.0,0.01,0.04,0.0,0.03,0.04,0.05,0.0,0.36,0.36,0.08,0.08,0.16,0.0,0.0,0.0,0.0,0.0,0.0,0.0,0.0,0.0,0.0,0.0,0.0,0.0,0.0,0.0,0.0,0.0,0.0,0.0,0.0,0.0,1.24,4.05,5.29,0.03,61891.0,36195.0,11.38,6.68,4.97,11.12,12.4,10.78,0.0,0.0,0.0,0.0,0.0,0.0,94.62,5.38,0.0,0.0,0.0,0.0,36,27,4,24
WV,Mason,54053,-82.0265,38.7697,27.037,21.63,0.0,21.63,2.33,0.0,2.33,5.407,80.0,1.4,65.0,0.43,1.83,0.7,0.0,0.7,0.08,0.0,0.07,0.34,0.02,0.0,0.02,0.28,0.06,0.0,0.05,0.06,0.14,0.13,0.0,0.13,0.08,0.16,0.24,1.14,130.45,131.59,0.0,0.01,12.13,8056.48,0.0,118.49,118.49,0.0,0.01,1.57,593.26,1.14,11.96,13.1,0.0,0.0,10.56,7463.22,4.86,130.78,135.64,12.2,27177.0,36448.0,13.15,7.56,7.13,12.99,14.71,12.22,0.0,0.0,0.0,0.0,0.0,0.0,93.76,6.24,0.0,0.0,0.0,0.0,4,27,21,24
WV,Marshall,54051,-80.6634,39.8606,31.978,24.437,3.768,28.205,4.05,0.62,4.67,3.773,80.0,3.59,127.0,0.3,3.89,3.68,115.07,118.75,0.04,0.0,0.03,0.05,0.0,0.0,0.0,0.01,0.04,0.0,0.03,0.04,0.07,0.0,0.0,0.0,1.94,1.96,3.9,0.05,75.93,75.98,0.0,0.0,10.73,5630.84,0.03,61.36,61.39,0.0,0.0,0.31,263.02,0.02,14.57,14.59,0.0,0.0,10.42,5367.82,10.04,193.67,203.71,10.76,32480.0,45182.0,11.39,6.17,4.82,11.16,12.36,10.55,0.0,0.0,0.0,0.0,0.0,0.0,92.31,7.69,0.0,0.0,0.0,0.0,36,27,42,34
WV,Marion,54049,-80.2434,39.51,56.925,0.432,53.704,54.136,0.07,8.14,8.21,2.789,79.0,4.8,89.0,0.22,5.02,0.0,0.0,0.0,0.08,0.0,0.07,0.11,0.0,0.0,0.0,0.03,0.08,0.0,0.07,0.08,0.04,0.0,0.0,0.0,1.01,1.24,2.25,0.0,1.37,1.37,0.0,0.0,0.98,515.59,0.0,0.0,0.0,0.0,0.0,0.0,0.0,0.0,1.37,1.37,0.0,0.0,0.98,515.59,1.3,10.87,12.17,1.05,56790.0,43165.0,11.55,6.6,5.24,11.34,12.7,10.87,0.0,0.0,0.0,0.0,0.0,0.0,90.71,9.29,0.0,0.0,0.0,0.0,23,27,31,34
WV,McDowell,54047,-81.6536,37.3785,19.835,13.746,0.0,13.746,2.9,0.0,2.9,6.089,80.0,1.32,96.0,0.49,1.81,0.0,0.01,0.01,0.01,0.0,0.01,0.01,0.0,0.0,0.0,0.0,0.01,0.0,0.01,0.01,0.0,0.0,0.0,0.0,0.38,0.17,0.55,0.0,0.0,0.0,0.0,0.0,0.0,0.0,0.0,0.0,0.0,0.0,0.0,0.0,0.0,0.0,0.0,0.0,0.0,0.0,0.0,0.0,3.77,0.19,3.96,0.01,20802.0,24921.0,12.24,7.37,6.02,12.02,13.57,11.6,0.0,0.0,0.0,0.0,0.0,0.0,88.25,11.75,0.05,0.0,0.0,0.0,4,27,4,17
WV,Logan,54045,-81.9353,37.8316,34.707,0.0,26.69,26.69,0.0,4.29,4.29,8.017,80.0,1.62,61.0,0.64,2.26,0.0,0.0,0.0,0.04,0.0,0.03,0.03,0.0,0.0,0.0,0.0,0.04,0.0,0.03,0.03,0.0,0.0,0.0,0.0,5.43,1.23,6.66,0.0,0.0,0.0,0.0,0.0,0.0,0.0,0.0,0.0,0.0,0.0,0.0,0.0,0.0,0.0,0.0,0.0,0.0,0.0,0.0,0.0,6.07,5.56,11.63,0.03,35760.0,36763.0,13.15,7.84,7.11,12.97,14.76,12.33,0.0,0.0,0.0,0.0,0.0,0.0,81.32,18.68,1.96,0.0,0.0,0.0,36,27,4,24
WV,Lincoln,54043,-82.0705,38.1753,21.415,0.0,11.5,11.5,0.0,0.3,0.3,9.915,80.0,0.34,30.0,0.79,1.13,0.0,0.0,0.0,0.0,0.0,0.0,0.01,0.0,0.0,0.0,0.01,0.0,0.0,0.0,0.0,0.01,0.0,0.0,0.0,0.0,0.0,0.0,0.0,0.0,0.0,0.0,0.0,0.0,0.0,0.0,0.0,0.0,0.0,0.0,0.0,0.0,0.0,0.0,0.0,0.0,0.0,0.0,0.0,0.79,0.31,1.1,0.0,21560.0,35800.0,13.53,7.85,7.58,13.36,15.17,12.57,0.0,0.0,0.0,0.0,0.0,0.0,78.49,21.51,1.34,0.0,0.0,0.0,4,27,4,24
WV,Kanawha,54039,-81.5281,38.3365,188.332,0.0,175.902,175.902,0.0,32.16,32.16,12.43,80.0,14.02,80.0,0.99,15.01,0.0,213.67,213.67,0.22,0.0,0.19,0.22,0.0,0.0,0.0,0.0,0.22,0.0,0.19,0.22,0.02,0.0,0.02,0.02,1.83,2.15,3.98,0.0,89.13,89.13,0.0,0.0,0.72,543.14,0.0,89.13,89.13,0.0,0.0,0.72,543.14,0.0,0.0,0.0,0.0,0.0,0.0,0.0,2.82,337.37,340.19,0.91,190781.0,45882.0,13.38,7.82,7.44,13.21,15.01,12.47,0.0,0.0,0.0,0.0,0.0,0.0,76.26,23.74,0.0,0.0,0.0,0.0,46,27,36,32
WV,Jackson,54035,-81.6748,38.8344,29.237,8.241,10.705,18.946,0.79,1.02,1.81,10.291,80.0,1.46,77.0,0.82,2.28,0.29,0.0,0.29,0.04,0.0,0.03,0.07,0.0,0.0,0.0,0.03,0.04,0.0,0.03,0.04,0.09,0.0,0.0,0.0,0.0,0.0,0.0,0.0,0.0,0.0,0.0,0.0,0.0,0.0,0.0,0.0,0.0,0.0,0.0,0.0,0.0,0.0,0.0,0.0,0.0,0.0,0.0,0.0,1.91,1.14,3.05,0.03,29256.0,41314.0,13.05,7.48,7.02,12.89,14.57,12.13,0.0,0.0,0.0,0.0,0.0,0.0,94.53,5.47,0.0,0.0,0.0,0.0,4,27,4,1
WV,Hancock,54029,-80.5739,40.5213,29.815,27.728,0.0,27.728,1.46,0.0,1.46,2.087,81.0,3.39,122.0,0.17,3.56,0.37,21.56,21.93,0.14,0.0,0.12,0.14,0.0,0.0,0.0,0.0,0.14,0.0,0.12,0.14,0.01,0.0,0.0,0.0,0.0,0.0,0.0,0.0,0.0,0.0,0.0,0.0,0.0,0.0,0.0,0.0,0.0,0.0,0.0,0.0,0.0,0.0,0.0,0.0,0.0,0.0,0.0,0.0,2.0,21.71,23.71,0.12,30201.0,39959.0,10.81,5.63,4.05,10.56,11.57,9.96,0.0,0.0,0.0,0.0,0.0,0.0,83.85,16.15,0.0,0.0,0.0,0.0,36,27,4,45
WV,Greenbrier,54025,-80.4529,37.9469,35.516,6.74,16.807,23.547,0.98,2.44,3.42,11.969,80.0,1.72,73.0,0.96,2.68,0.0,0.32,0.32,0.27,0.0,0.23,0.33,0.0,0.0,0.0,0.05,0.27,0.0,0.23,0.28,0.4,0.0,0.81,0.81,0.3,0.2,0.5,0.0,0.0,0.0,0.0,0.0,0.0,0.0,0.0,0.0,0.0,0.0,0.0,0.0,0.0,0.0,0.0,0.0,0.0,0.0,0.0,0.0,2.44,4.24,6.68,0.23,35666.0,39746.0,10.66,6.14,4.49,10.42,11.51,10.15,0.0,0.0,0.0,0.0,0.0,0.0,91.96,8.04,0.0,0.0,0.0,0.0,36,0,4,45
WV,Randolph,54083,-79.8758,38.7748,29.126,2.374,18.218,20.592,0.32,2.43,2.75,8.534,80.0,1.55,75.0,0.68,2.23,0.0,0.0,0.0,0.02,0.0,0.02,0.02,0.0,0.0,0.0,0.0,0.02,0.0,0.02,0.02,0.09,7.18,1.81,8.99,0.07,0.08,0.15,0.0,0.0,0.0,0.0,0.0,0.0,0.0,0.0,0.0,0.0,0.0,0.0,0.0,0.0,0.0,0.0,0.0,0.0,0.0,0.0,0.0,8.27,4.41,12.68,0.02,29365.0,39457.0,9.71,5.51,2.85,9.44,10.31,9.31,0.0,0.0,0.0,0.0,0.0,0.0,67.36,32.64,0.0,0.0,0.0,0.0,36,27,4,45
WV,Gilmer,54021,-80.8571,38.9241,8.518,0.0,3.782,3.782,0.0,0.64,0.64,4.736,80.0,0.3,79.0,0.38,0.68,0.0,0.0,0.0,0.02,0.0,0.02,0.02,0.0,0.0,0.0,0.0,0.02,0.0,0.02,0.02,0.06,0.0,0.0,0.0,0.0,0.0,0.0,0.0,0.0,0.0,0.0,0.0,0.0,0.0,0.0,0.0,0.0,0.0,0.0,0.0,0.0,0.0,0.0,0.0,0.0,0.0,0.0,0.0,0.38,0.72,1.1,0.02,8644.0,37536.0,12.56,7.23,6.54,12.36,13.95,11.75,0.0,0.0,0.0,0.0,0.0,0.0,80.19,19.81,0.0,0.0,0.0,0.0,4,27,4,45
WV,Fayette,54019,-81.0811,38.0288,44.997,6.778,31.02,37.798,0.96,4.41,5.37,7.199,81.0,3.01,80.0,0.58,3.59,0.0,5.86,5.86,0.08,0.0,0.07,0.11,0.0,0.0,0.0,0.03,0.08,0.0,0.07,0.08,0.02,0.0,0.0,0.0,0.43,0.64,1.07,0.0,0.0,0.0,0.0,0.0,0.0,0.0,0.0,0.0,0.0,0.0,0.0,0.0,0.0,0.0,0.0,0.0,0.0,0.0,0.0,0.0,1.97,11.01,12.98,0.07,45534.0,36293.0,11.8,7.05,5.46,11.58,13.05,11.19,0.0,0.0,0.0,0.0,0.0,0.0,83.54,16.46,0.0,0.0,0.0,0.0,36,27,4,24
WV,Clay,54015,-81.0751,38.4626,8.91,0.0,4.001,4.001,0.0,0.4,0.4,4.909,79.0,0.28,70.0,0.39,0.67,0.0,0.0,0.0,0.0,0.0,0.0,0.0,0.0,0.0,0.0,0.0,0.0,0.0,0.0,0.0,0.01,0.0,0.0,0.0,0.0,0.0,0.0,0.0,0.0,0.0,0.0,0.0,0.0,0.0,0.0,0.0,0.0,0.0,0.0,0.0,0.0,0.0,0.0,0.0,0.0,0.0,0.0,0.0,0.39,0.41,0.8,0.0,9141.0,31325.0,12.72,7.43,6.6,12.53,14.17,11.91,0.0,0.0,0.0,0.0,0.0,0.0,82.39,17.61,0.0,0.0,0.0,0.0,4,27,4,8
WV,Calhoun,54013,-81.1175,38.8445,7.47,0.0,3.563,3.563,0.0,0.32,0.32,3.907,79.0,0.26,73.0,0.31,0.57,0.0,0.0,0.0,0.0,0.0,0.0,0.01,0.0,0.0,0.0,0.01,0.0,0.0,0.0,0.0,0.04,0.0,0.0,0.0,0.0,0.0,0.0,0.0,0.0,0.0,0.0,0.0,0.0,0.0,0.0,0.0,0.0,0.0,0.0,0.0,0.0,0.0,0.0,0.0,0.0,0.0,0.0,0.0,0.31,0.36,0.67,0.0,7557.0,35568.0,12.74,7.29,6.72,12.55,14.16,11.87,0.0,0.0,0.0,0.0,0.0,0.0,85.0,15.0,0.0,0.0,0.0,0.0,4,27,4,24
WV,Cabell,54011,-82.2417,38.4203,96.844,0.0,90.065,90.065,0.0,12.17,12.17,6.779,80.0,6.41,71.0,0.54,6.95,0.0,0.74,0.74,0.15,0.0,0.13,0.16,0.0,0.0,0.0,0.01,0.15,0.0,0.13,0.15,0.03,0.03,0.03,0.06,0.0,0.0,0.0,0.0,0.0,0.0,0.0,0.0,0.0,0.0,0.0,0.0,0.0,0.0,0.0,0.0,0.0,0.0,0.0,0.0,0.0,0.0,0.0,0.0,0.57,13.12,13.69,0.13,96824.0,38344.0,13.6,7.99,7.69,13.46,15.33,12.67,0.0,0.0,0.0,0.0,0.0,0.0,71.11,28.89,0.08,0.0,0.0,0.0,26,27,31,45
WV,Brooke,54009,-80.5765,40.2733,23.35,13.888,7.827,21.715,3.33,1.88,5.21,1.635,80.0,1.75,81.0,0.13,1.88,0.34,5.88,6.22,0.06,0.0,0.05,0.06,0.0,0.0,0.0,0.0,0.06,0.0,0.05,0.06,0.02,0.0,0.0,0.0,0.0,0.09,0.09,0.0,0.0,0.0,0.0,0.0,0.0,0.0,0.0,0.0,0.0,0.0,0.0,0.0,0.0,0.0,0.0,0.0,0.0,0.0,0.0,0.0,3.81,7.92,11.73,0.05,23665.0,46215.0,11.06,5.81,4.41,10.82,11.9,10.19,0.0,0.0,0.0,0.0,0.0,0.0,90.85,9.15,0.0,0.0,0.0,0.0,36,27,4,11
WV,Braxton,54007,-80.7193,38.6998,14.415,0.0,8.346,8.346,0.0,1.09,1.09,6.069,81.0,0.7,84.0,0.49,1.19,0.0,0.0,0.0,0.0,0.0,0.0,0.01,0.0,0.0,0.0,0.01,0.0,0.0,0.0,0.0,0.06,0.0,0.0,0.0,0.0,0.0,0.0,0.0,0.0,0.0,0.0,0.0,0.0,0.0,0.0,0.0,0.0,0.0,0.0,0.0,0.0,0.0,0.0,0.0,0.0,0.0,0.0,0.0,0.49,1.15,1.64,0.0,14466.0,32750.0,12.34,7.12,6.21,12.12,13.65,11.58,0.0,0.0,0.0,0.0,0.0,0.0,80.93,19.07,0.0,0.0,0.0,0.0,4,27,4,8
WV,Boone,54005,-81.7113,38.0231,23.372,0.0,14.397,14.397,0.0,0.19,0.19,8.975,80.0,1.19,83.0,0.72,1.91,0.0,0.0,0.0,0.04,0.0,0.03,0.04,0.0,0.0,0.0,0.0,0.04,0.0,0.03,0.04,0.0,0.0,0.0,0.0,0.47,4.92,5.39,0.0,0.0,0.0,0.0,0.0,0.0,0.0,0.0,0.0,0.0,0.0,0.0,0.0,0.0,0.0,0.0,0.0,0.0,0.0,0.0,0.0,1.19,5.15,6.34,0.03,24000.0,39958.0,13.14,7.68,7.04,12.94,14.67,12.25,0.0,0.0,0.0,0.0,0.0,0.0,80.79,19.21,1.65,0.0,0.0,0.0,4,27,4,45
WV,Wetzel,54103,-80.6391,39.6053,15.816,10.835,0.442,11.277,1.71,0.07,1.78,4.539,79.0,0.98,87.0,0.36,1.34,0.0,0.0,0.0,0.0,0.0,0.0,0.0,0.0,0.0,0.0,0.0,0.0,0.0,0.0,0.0,0.01,0.0,0.0,0.0,0.25,0.75,1.0,0.0,0.0,0.0,0.0,0.0,0.0,0.0,0.0,0.0,0.0,0.0,0.0,0.0,0.0,0.0,0.0,0.0,0.0,0.0,0.0,0.0,2.32,0.83,3.15,0.0,16157.0,39096.0,11.65,6.53,5.3,11.45,12.79,10.89,0.0,0.0,0.0,0.0,0.0,0.0,87.85,12.15,0.0,0.0,0.0,0.0,4,27,4,45
WV,Wirt,54105,-81.3786,39.0224,5.88,0.0,1.299,1.299,0.0,0.0,0.0,4.581,81.0,0.1,77.0,0.37,0.47,0.0,0.0,0.0,0.04,0.0,0.03,0.04,0.0,0.0,0.0,0.0,0.04,0.0,0.03,0.04,0.03,0.0,0.12,0.12,0.0,0.0,0.0,0.0,0.0,0.0,0.0,0.0,0.0,0.0,0.0,0.0,0.0,0.0,0.0,0.0,0.0,0.0,0.0,0.0,0.0,0.0,0.0,0.0,0.38,0.18,0.56,0.03,5841.0,39352.0,12.72,7.22,6.63,12.54,14.13,11.82,0.0,0.0,0.0,0.0,0.0,0.0,96.15,3.85,0.0,0.0,0.0,0.0,4,27,4,45
WV,Wood,54107,-81.515,39.2111,86.452,66.172,13.277,79.449,6.64,1.33,7.97,7.003,80.0,6.67,84.0,0.56,7.23,13.01,33.35,46.36,0.27,0.0,0.23,0.27,0.0,0.0,0.0,0.01,0.27,0.0,0.23,0.26,0.07,0.0,0.0,0.0,0.02,0.0,0.02,0.0,0.0,0.0,0.0,0.0,0.0,0.0,0.0,0.0,0.0,0.0,0.0,0.0,0.0,0.0,0.0,0.0,0.0,0.0,0.0,0.0,20.25,35.0,55.25,0.23,86559.0,41884.0,12.6,7.15,6.47,12.42,13.99,11.72,0.0,0.0,0.0,0.0,0.0,0.0,97.74,2.26,0.0,0.0,0.0,0.0,23,0,31,1
WV,Wyoming,54109,-81.5491,37.6096,22.151,5.751,8.226,13.977,0.75,1.07,1.82,8.174,80.0,1.21,87.0,0.65,1.86,0.0,0.0,0.0,0.08,0.0,0.07,0.08,0.0,0.0,0.0,0.0,0.08,0.0,0.07,0.08,0.0,0.0,0.0,0.0,0.85,0.28,1.13,0.0,0.0,0.0,0.0,0.0,0.0,0.0,0.0,0.0,0.0,0.0,0.0,0.0,0.0,0.0,0.0,0.0,0.0,0.0,0.0,0.0,2.25,1.43,3.68,0.07,22866.0,33730.0,12.19,7.36,5.9,11.97,13.55,11.56,0.0,0.0,0.0,0.0,0.0,0.0,87.94,12.06,0.2,0.0,0.0,0.0,4,27,4,8
WV,Barbour,54001,-80.003,39.1329,16.704,0.0,12.561,12.561,0.0,1.45,1.45,4.143,80.0,1.1,88.0,0.33,1.43,0.0,0.0,0.0,0.02,0.0,0.02,0.06,0.0,0.0,0.0,0.04,0.02,0.0,0.02,0.02,0.08,0.0,0.0,0.0,1.34,0.13,1.47,0.0,0.0,0.0,0.0,0.0,0.0,0.0,0.0,0.0,0.0,0.0,0.0,0.0,0.0,0.0,0.0,0.0,0.0,0.0,0.0,0.0,1.68,1.67,3.35,0.02,16731.0,37066.0,10.83,6.11,4.26,10.57,11.7,10.25,0.0,0.0,0.0,0.0,0.0,0.0,72.57,27.43,0.0,0.0,0.0,0.0,4,27,4,24
WV,Taylor,54091,-80.0461,39.336,16.912,0.0,14.324,14.324,0.0,1.82,1.82,2.588,81.0,1.1,77.0,0.21,1.31,0.0,0.0,0.0,0.04,0.0,0.03,0.04,0.0,0.0,0.0,0.0,0.04,0.0,0.03,0.04,0.05,0.0,0.0,0.0,0.41,0.69,1.1,0.0,0.0,0.0,0.0,0.0,0.0,0.0,0.0,0.0,0.0,0.0,0.0,0.0,0.0,0.0,0.0,0.0,0.0,0.0,0.0,0.0,0.63,2.59,3.22,0.03,16977.0,43970.0,11.36,6.45,4.99,11.13,12.41,10.7,0.0,0.0,0.0,0.0,0.0,0.0,83.32,16.68,0.0,0.0,0.0,0.0,4,27,4,34
WV,Webster,54101,-80.4219,38.4947,8.755,0.0,5.017,5.017,0.0,0.49,0.49,3.738,80.0,0.45,90.0,0.3,0.75,0.0,0.0,0.0,0.0,0.0,0.0,0.0,0.0,0.0,0.0,0.0,0.0,0.0,0.0,0.0,0.0,0.0,0.0,0.0,0.37,0.17,0.54,0.0,0.0,0.0,0.0,0.0,0.0,0.0,0.0,0.0,0.0,0.0,0.0,0.0,0.0,0.0,0.0,0.0,0.0,0.0,0.0,0.0,0.67,0.66,1.33,0.0,8927.0,29086.0,10.51,6.14,3.76,10.25,11.37,10.05,0.0,0.0,0.0,0.0,0.0,0.0,69.28,30.72,0.0,0.0,0.0,0.0,4,27,4,48
WV,Wayne,54099,-82.427,38.1461,40.971,0.0,31.712,31.712,0.0,2.91,2.91,9.259,80.0,2.57,81.0,0.74,3.31,0.0,0.26,0.26,0.04,0.0,0.03,0.05,0.0,0.0,0.0,0.01,0.04,0.0,0.03,0.04,0.02,0.0,0.0,0.0,0.06,0.46,0.52,0.0,0.0,0.0,0.0,0.0,0.0,0.0,0.0,0.0,0.0,0.0,0.0,0.0,0.0,0.0,0.0,0.0,0.0,0.0,0.0,0.0,0.8,3.69,4.49,0.03,41499.0,36318.0,13.67,7.98,7.76,13.52,15.38,12.71,0.0,0.0,0.0,0.0,0.0,0.0,81.92,18.08,1.7,0.0,0.0,0.0,36,27,4,24
WV,Upshur,54097,-80.2334,38.8978,24.758,0.0,17.9,17.9,0.0,2.11,2.11,6.858,80.0,1.34,75.0,0.55,1.89,0.0,0.0,0.0,0.06,0.0,0.05,0.08,0.0,0.0,0.0,0.02,0.06,0.0,0.05,0.06,0.08,0.0,0.0,0.0,0.06,0.03,0.09,0.0,0.0,0.0,0.0,0.0,0.0,0.0,0.0,0.0,0.0,0.0,0.0,0.0,0.0,0.0,0.0,0.0,0.0,0.0,0.0,0.0,0.61,2.28,2.89,0.05,24560.0,40330.0,11.31,6.48,4.76,11.06,12.34,10.69,0.0,0.0,0.0,0.0,0.0,0.0,76.55,23.45,0.0,0.0,0.0,0.0,4,27,4,1
WV,Tyler,54095,-80.8849,39.4653,8.975,2.76,2.733,5.493,0.29,0.28,0.57,3.482,80.0,0.56,102.0,0.28,0.84,5.37,0.0,5.37,0.02,0.0,0.02,0.03,0.0,0.0,0.0,0.01,0.02,0.0,0.02,0.02,0.04,0.0,0.0,0.0,0.0,0.75,0.75,0.0,0.0,0.0,0.0,0.0,0.0,0.0,0.0,0.0,0.0,0.0,0.0,0.0,0.0,0.0,0.0,0.0,0.0,0.0,0.0,0.0,5.95,1.08,7.03,0.02,9033.0,38854.0,11.96,6.81,5.71,11.78,13.22,11.2,0.0,0.0,0.0,0.0,0.0,0.0,93.57,6.43,0.0,0.0,0.0,0.0,4,27,4,45
WV,Tucker,54093,-79.565,39.1136,6.966,0.56,4.037,4.597,0.07,0.54,0.61,2.369,80.0,0.3,65.0,0.19,0.49,0.0,0.17,0.17,0.07,0.0,0.06,0.07,0.0,0.0,0.0,0.0,0.07,0.0,0.06,0.07,0.02,0.0,0.0,0.0,0.0,0.36,0.36,0.0,0.0,0.0,0.0,0.0,0.0,0.0,0.0,0.0,0.0,0.0,0.0,0.0,0.0,0.0,0.0,0.0,0.0,0.0,0.0,0.0,0.26,1.16,1.42,0.06,6972.0,40533.0,9.33,5.17,2.39,9.06,9.8,8.93,0.0,0.0,0.0,0.0,0.0,0.0,66.21,33.79,0.0,0.0,0.0,0.0,4,27,4,1
WV,Summers,54089,-80.8586,37.6559,13.239,0.0,7.189,7.189,0.0,2.49,2.49,6.05,79.0,0.53,74.0,0.48,1.01,0.0,0.0,0.0,0.08,0.0,0.07,0.09,0.0,0.0,0.0,0.01,0.08,0.0,0.07,0.08,0.06,0.0,0.0,0.0,0.0,0.0,0.0,0.0,0.0,0.0,0.0,0.0,0.0,0.0,0.0,0.0,0.0,0.0,0.0,0.0,0.0,0.0,0.0,0.0,0.0,0.0,0.0,0.0,0.49,2.62,3.11,0.07,13544.0,36651.0,11.26,6.59,5.06,11.02,12.27,10.67,0.0,0.0,0.0,0.0,0.0,0.0,95.17,4.83,0.0,0.0,0.0,0.0,4,27,4,24
WV,Roane,54087,-81.3483,38.714,14.435,0.0,7.564,7.564,0.0,0.85,0.85,6.871,80.0,0.67,89.0,0.55,1.22,0.0,0.0,0.0,0.02,0.0,0.02,0.03,0.0,0.0,0.0,0.0,0.02,0.0,0.02,0.03,0.08,0.0,0.0,0.0,0.0,0.0,0.0,0.0,0.0,0.0,0.0,0.0,0.0,0.0,0.0,0.0,0.0,0.0,0.0,0.0,0.0,0.0,0.0,0.0,0.0,0.0,0.0,0.0,0.55,0.95,1.5,0.02,14636.0,31813.0,12.94,7.44,6.91,12.76,14.42,12.05,0.0,0.0,0.0,0.0,0.0,0.0,87.38,12.62,0.0,0.0,0.0,0.0,4,27,4,8
WV,Ritchie,54085,-81.0629,39.1783,9.982,0.0,5.36,5.36,0.0,0.48,0.48,4.622,80.0,0.49,91.0,0.37,0.86,0.0,0.0,0.0,0.02,0.0,0.02,0.02,0.0,0.0,0.0,0.0,0.02,0.0,0.02,0.02,0.08,0.0,0.0,0.0,0.0,1.01,1.01,0.0,0.0,0.0,0.0,0.0,0.0,0.0,0.0,0.0,0.0,0.0,0.0,0.0,0.0,0.0,0.0,0.0,0.0,0.0,0.0,0.0,0.37,1.59,1.96,0.02,10140.0,37636.0,12.32,7.01,6.2,12.13,13.65,11.51,0.0,0.0,0.0,0.0,0.0,0.0,94.37,5.63,0.0,0.0,0.0,0.0,4,27,4,45
PA,Northumberland,42097,-76.7091,40.852,93.246,4.139,47.166,51.305,0.22,10.83,11.05,41.941,60.0,3.88,76.0,2.52,6.4,0.13,2.09,2.22,0.54,0.0,0.49,1.7,0.4,0.0,0.36,1.42,0.14,0.0,0.13,0.28,0.62,0.16,0.24,0.4,0.0,0.0,0.0,0.0,13.79,13.79,0.0,0.0,0.0,0.0,0.0,0.0,0.0,0.0,0.0,0.0,0.0,0.0,13.79,13.79,0.0,0.0,0.0,0.0,3.91,27.23,31.14,0.49,94006.0,42406.0,10.68,4.53,4.2,10.37,10.96,9.51,0.0,0.0,0.0,0.0,0.0,0.0,54.69,45.31,0.0,0.0,0.0,0.0,26,27,31,32
ME,Androscoggin,23001,-70.2045,44.1654,107.233,10.962,41.696,52.658,0.8,7.12,7.92,54.575,63.0,3.45,66.0,3.46,6.91,0.76,1.26,2.02,0.57,0.0,0.54,1.27,0.38,0.0,0.36,0.85,0.19,0.0,0.18,0.42,0.28,0.0,0.0,0.0,0.33,0.58,0.91,0.0,0.62,0.62,0.0,0.0,0.44,285.48,0.0,0.0,0.0,0.0,0.0,0.0,0.0,0.0,0.62,0.62,0.0,0.0,0.44,285.48,5.62,10.16,15.78,0.98,107393.0,47537.0,7.36,2.27,0.09,7.08,7.05,6.8,0.0,0.0,0.0,0.0,0.0,0.0,46.6,53.4,11.9,0.0,0.0,0.0,36,27,31,39
NJ,Hudson,34017,-74.0825,40.7068,674.836,0.0,674.836,674.836,0.0,0.0,0.0,0.0,0.0,53.91,80.0,0.08,53.99,0.24,0.0,0.24,0.02,0.0,0.01,0.0,0.0,0.0,0.0,0.0,0.0,0.0,0.0,0.0,0.0,0.0,0.0,0.0,0.0,0.0,0.0,0.0,238.83,238.83,0.0,0.42,2.74,741.18,0.0,238.83,238.83,0.0,0.0,2.44,345.42,0.0,0.0,0.0,0.0,0.42,0.3,395.76,0.32,238.85,239.17,2.75,662619.0,59741.0,11.76,5.98,4.14,11.54,12.65,10.66,0.0,0.0,0.0,0.0,0.0,0.0,46.2,53.8,36.47,0.0,0.0,0.0,14,27,33,44
NJ,Hudson,34017,-74.0825,40.7068,674.836,0.0,674.836,674.836,0.0,0.0,0.0,0.0,0.0,53.91,80.0,0.08,53.99,0.24,0.0,0.24,0.02,0.0,0.01,0.0,0.0,0.0,0.0,0.0,0.0,0.0,0.0,0.0,0.0,0.0,0.0,0.0,0.0,0.0,0.0,0.0,238.83,238.83,0.0,0.42,2.74,741.18,0.0,238.83,238.83,0.0,0.0,2.44,345.42,0.0,0.0,0.0,0.0,0.42,0.3,395.76,0.32,238.85,239.17,2.75,662619.0,59741.0,11.76,5.98,4.14,11.54,12.65,10.66,0.0,0.0,0.0,0.0,0.0,0.0,46.2,53.8,36.47,0.0,0.0,0.0,14,27,33,44
NJ,Hudson,34017,-74.0825,40.7068,674.836,0.0,674.836,674.836,0.0,0.0,0.0,0.0,0.0,53.91,80.0,0.08,53.99,0.24,0.0,0.24,0.02,0.0,0.01,0.0,0.0,0.0,0.0,0.0,0.0,0.0,0.0,0.0,0.0,0.0,0.0,0.0,0.0,0.0,0.0,0.0,238.83,238.83,0.0,0.42,2.74,741.18,0.0,238.83,238.83,0.0,0.0,2.44,345.42,0.0,0.0,0.0,0.0,0.42,0.3,395.76,0.32,238.85,239.17,2.75,662619.0,59741.0,11.76,5.98,4.14,11.54,12.65,10.66,0.0,0.0,0.0,0.0,0.0,0.0,46.2,53.8,36.47,0.0,0.0,0.0,14,27,33,44
NJ,Hudson,34017,-74.0825,40.7068,674.836,0.0,674.836,674.836,0.0,0.0,0.0,0.0,0.0,53.91,80.0,0.08,53.99,0.24,0.0,0.24,0.02,0.0,0.01,0.0,0.0,0.0,0.0,0.0,0.0,0.0,0.0,0.0,0.0,0.0,0.0,0.0,0.0,0.0,0.0,0.0,238.83,238.83,0.0,0.42,2.74,741.18,0.0,238.83,238.83,0.0,0.0,2.44,345.42,0.0,0.0,0.0,0.0,0.42,0.3,395.76,0.32,238.85,239.17,2.75,662619.0,59741.0,11.76,5.98,4.14,11.54,12.65,10.66,0.0,0.0,0.0,0.0,0.0,0.0,46.2,53.8,36.47,0.0,0.0,0.0,14,27,33,44
NJ,Hudson,34017,-74.0825,40.7068,674.836,0.0,674.836,674.836,0.0,0.0,0.0,0.0,0.0,53.91,80.0,0.08,53.99,0.24,0.0,0.24,0.02,0.0,0.01,0.0,0.0,0.0,0.0,0.0,0.0,0.0,0.0,0.0,0.0,0.0,0.0,0.0,0.0,0.0,0.0,0.0,238.83,238.83,0.0,0.42,2.74,741.18,0.0,238.83,238.83,0.0,0.0,2.44,345.42,0.0,0.0,0.0,0.0,0.42,0.3,395.76,0.32,238.85,239.17,2.75,662619.0,59741.0,11.76,5.98,4.14,11.54,12.65,10.66,0.0,0.0,0.0,0.0,0.0,0.0,46.2,53.8,36.47,0.0,0.0,0.0,14,27,33,44
NJ,Hudson,34017,-74.0825,40.7068,674.836,0.0,674.836,674.836,0.0,0.0,0.0,0.0,0.0,53.91,80.0,0.08,53.99,0.24,0.0,0.24,0.02,0.0,0.01,0.0,0.0,0.0,0.0,0.0,0.0,0.0,0.0,0.0,0.0,0.0,0.0,0.0,0.0,0.0,0.0,0.0,238.83,238.83,0.0,0.42,2.74,741.18,0.0,238.83,238.83,0.0,0.0,2.44,345.42,0.0,0.0,0.0,0.0,0.42,0.3,395.76,0.32,238.85,239.17,2.75,662619.0,59741.0,11.76,5.98,4.14,11.54,12.65,10.66,0.0,0.0,0.0,0.0,0.0,0.0,46.2,53.8,36.47,0.0,0.0,0.0,14,27,33,44
NJ,Hudson,34017,-74.0825,40.7068,674.836,0.0,674.836,674.836,0.0,0.0,0.0,0.0,0.0,53.91,80.0,0.08,53.99,0.24,0.0,0.24,0.02,0.0,0.01,0.0,0.0,0.0,0.0,0.0,0.0,0.0,0.0,0.0,0.0,0.0,0.0,0.0,0.0,0.0,0.0,0.0,238.83,238.83,0.0,0.42,2.74,741.18,0.0,238.83,238.83,0.0,0.0,2.44,345.42,0.0,0.0,0.0,0.0,0.42,0.3,395.76,0.32,238.85,239.17,2.75,662619.0,59741.0,11.76,5.98,4.14,11.54,12.65,10.66,0.0,0.0,0.0,0.0,0.0,0.0,46.2,53.8,36.47,0.0,0.0,0.0,14,27,33,44
NJ,Hudson,34017,-74.0825,40.7068,674.836,0.0,674.836,674.836,0.0,0.0,0.0,0.0,0.0,53.91,80.0,0.08,53.99,0.24,0.0,0.24,0.02,0.0,0.01,0.0,0.0,0.0,0.0,0.0,0.0,0.0,0.0,0.0,0.0,0.0,0.0,0.0,0.0,0.0,0.0,0.0,238.83,238.83,0.0,0.42,2.74,741.18,0.0,238.83,238.83,0.0,0.0,2.44,345.42,0.0,0.0,0.0,0.0,0.42,0.3,395.76,0.32,238.85,239.17,2.75,662619.0,59741.0,11.76,5.98,4.14,11.54,12.65,10.66,0.0,0.0,0.0,0.0,0.0,0.0,46.2,53.8,36.47,0.0,0.0,0.0,14,27,33,44
NJ,Hudson,34017,-74.0825,40.7068,674.836,0.0,674.836,674.836,0.0,0.0,0.0,0.0,0.0,53.91,80.0,0.08,53.99,0.24,0.0,0.24,0.02,0.0,0.01,0.0,0.0,0.0,0.0,0.0,0.0,0.0,0.0,0.0,0.0,0.0,0.0,0.0,0.0,0.0,0.0,0.0,238.83,238.83,0.0,0.42,2.74,741.18,0.0,238.83,238.83,0.0,0.0,2.44,345.42,0.0,0.0,0.0,0.0,0.42,0.3,395.76,0.32,238.85,239.17,2.75,662619.0,59741.0,11.76,5.98,4.14,11.54,12.65,10.66,0.0,0.0,0.0,0.0,0.0,0.0,46.2,53.8,36.47,0.0,0.0,0.0,14,27,33,44
NJ,Hudson,34017,-74.0825,40.7068,674.836,0.0,674.836,674.836,0.0,0.0,0.0,0.0,0.0,53.91,80.0,0.08,53.99,0.24,0.0,0.24,0.02,0.0,0.01,0.0,0.0,0.0,0.0,0.0,0.0,0.0,0.0,0.0,0.0,0.0,0.0,0.0,0.0,0.0,0.0,0.0,238.83,238.83,0.0,0.42,2.74,741.18,0.0,238.83,238.83,0.0,0.0,2.44,345.42,0.0,0.0,0.0,0.0,0.42,0.3,395.76,0.32,238.85,239.17,2.75,662619.0,59741.0,11.76,5.98,4.14,11.54,12.65,10.66,0.0,0.0,0.0,0.0,0.0,0.0,46.2,53.8,36.47,0.0,0.0,0.0,14,27,33,44
NJ,Hudson,34017,-74.0825,40.7068,674.836,0.0,674.836,674.836,0.0,0.0,0.0,0.0,0.0,53.91,80.0,0.08,53.99,0.24,0.0,0.24,0.02,0.0,0.01,0.0,0.0,0.0,0.0,0.0,0.0,0.0,0.0,0.0,0.0,0.0,0.0,0.0,0.0,0.0,0.0,0.0,238.83,238.83,0.0,0.42,2.74,741.18,0.0,238.83,238.83,0.0,0.0,2.44,345.42,0.0,0.0,0.0,0.0,0.42,0.3,395.76,0.32,238.85,239.17,2.75,662619.0,59741.0,11.76,5.98,4.14,11.54,12.65,10.66,0.0,0.0,0.0,0.0,0.0,0.0,46.2,53.8,36.47,0.0,0.0,0.0,14,27,33,44
NJ,Hudson,34017,-74.0825,40.7068,674.836,0.0,674.836,674.836,0.0,0.0,0.0,0.0,0.0,53.91,80.0,0.08,53.99,0.24,0.0,0.24,0.02,0.0,0.01,0.0,0.0,0.0,0.0,0.0,0.0,0.0,0.0,0.0,0.0,0.0,0.0,0.0,0.0,0.0,0.0,0.0,238.83,238.83,0.0,0.42,2.74,741.18,0.0,238.83,238.83,0.0,0.0,2.44,345.42,0.0,0.0,0.0,0.0,0.42,0.3,395.76,0.32,238.85,239.17,2.75,662619.0,59741.0,11.76,5.98,4.14,11.54,12.65,10.66,0.0,0.0,0.0,0.0,0.0,0.0,46.2,53.8,36.47,0.0,0.0,0.0,14,27,33,44
NJ,Hudson,34017,-74.0825,40.7068,674.836,0.0,674.836,674.836,0.0,0.0,0.0,0.0,0.0,53.91,80.0,0.08,53.99,0.24,0.0,0.24,0.02,0.0,0.01,0.0,0.0,0.0,0.0,0.0,0.0,0.0,0.0,0.0,0.0,0.0,0.0,0.0,0.0,0.0,0.0,0.0,238.83,238.83,0.0,0.42,2.74,741.18,0.0,238.83,238.83,0.0,0.0,2.44,345.42,0.0,0.0,0.0,0.0,0.42,0.3,395.76,0.32,238.85,239.17,2.75,662619.0,59741.0,11.76,5.98,4.14,11.54,12.65,10.66,0.0,0.0,0.0,0.0,0.0,0.0,46.2,53.8,36.47,0.0,0.0,0.0,14,27,33,44
NJ,Hudson,34017,-74.0825,40.7068,674.836,0.0,674.836,674.836,0.0,0.0,0.0,0.0,0.0,53.91,80.0,0.08,53.99,0.24,0.0,0.24,0.02,0.0,0.01,0.0,0.0,0.0,0.0,0.0,0.0,0.0,0.0,0.0,0.0,0.0,0.0,0.0,0.0,0.0,0.0,0.0,238.83,238.83,0.0,0.42,2.74,741.18,0.0,238.83,238.83,0.0,0.0,2.44,345.42,0.0,0.0,0.0,0.0,0.42,0.3,395.76,0.32,238.85,239.17,2.75,662619.0,59741.0,11.76,5.98,4.14,11.54,12.65,10.66,0.0,0.0,0.0,0.0,0.0,0.0,46.2,53.8,36.47,0.0,0.0,0.0,14,27,33,44
NJ,Hudson,34017,-74.0825,40.7068,674.836,0.0,674.836,674.836,0.0,0.0,0.0,0.0,0.0,53.91,80.0,0.08,53.99,0.24,0.0,0.24,0.02,0.0,0.01,0.0,0.0,0.0,0.0,0.0,0.0,0.0,0.0,0.0,0.0,0.0,0.0,0.0,0.0,0.0,0.0,0.0,238.83,238.83,0.0,0.42,2.74,741.18,0.0,238.83,238.83,0.0,0.0,2.44,345.42,0.0,0.0,0.0,0.0,0.42,0.3,395.76,0.32,238.85,239.17,2.75,662619.0,59741.0,11.76,5.98,4.14,11.54,12.65,10.66,0.0,0.0,0.0,0.0,0.0,0.0,46.2,53.8,36.47,0.0,0.0,0.0,14,27,33,44
NJ,Hudson,34017,-74.0825,40.7068,674.836,0.0,674.836,674.836,0.0,0.0,0.0,0.0,0.0,53.91,80.0,0.08,53.99,0.24,0.0,0.24,0.02,0.0,0.01,0.0,0.0,0.0,0.0,0.0,0.0,0.0,0.0,0.0,0.0,0.0,0.0,0.0,0.0,0.0,0.0,0.0,238.83,238.83,0.0,0.42,2.74,741.18,0.0,238.83,238.83,0.0,0.0,2.44,345.42,0.0,0.0,0.0,0.0,0.42,0.3,395.76,0.32,238.85,239.17,2.75,662619.0,59741.0,11.76,5.98,4.14,11.54,12.65,10.66,0.0,0.0,0.0,0.0,0.0,0.0,46.2,53.8,36.47,0.0,0.0,0.0,14,27,33,44
NY,Richmond,36085,-74.1557,40.5802,474.558,0.0,474.558,474.558,0.0,0.0,0.0,0.0,0.0,32.74,69.0,0.0,32.74,0.0,0.0,0.0,0.18,0.0,0.17,0.24,0.0,0.0,0.0,0.01,0.18,0.0,0.17,0.23,0.0,0.0,0.0,0.0,0.0,0.0,0.0,0.0,368.1,368.1,0.0,0.0,3.68,1050.27,0.0,368.1,368.1,0.0,0.0,3.68,1050.27,0.0,0.0,0.0,0.0,0.0,0.0,0.0,0.07,368.21,368.28,3.85,472481.0,73197.0,12.3,6.49,4.64,12.11,13.39,11.12,0.0,0.0,0.0,0.0,0.0,0.0,48.08,51.92,33.59,0.0,0.0,0.0,37,27,36,37
NY,Richmond,36085,-74.1557,40.5802,474.558,0.0,474.558,474.558,0.0,0.0,0.0,0.0,0.0,32.74,69.0,0.0,32.74,0.0,0.0,0.0,0.18,0.0,0.17,0.24,0.0,0.0,0.0,0.01,0.18,0.0,0.17,0.23,0.0,0.0,0.0,0.0,0.0,0.0,0.0,0.0,368.1,368.1,0.0,0.0,3.68,1050.27,0.0,368.1,368.1,0.0,0.0,3.68,1050.27,0.0,0.0,0.0,0.0,0.0,0.0,0.0,0.07,368.21,368.28,3.85,472481.0,73197.0,12.3,6.49,4.64,12.11,13.39,11.12,0.0,0.0,0.0,0.0,0.0,0.0,48.08,51.92,33.59,0.0,0.0,0.0,37,27,36,37
NY,Richmond,36085,-74.1557,40.5802,474.558,0.0,474.558,474.558,0.0,0.0,0.0,0.0,0.0,32.74,69.0,0.0,32.74,0.0,0.0,0.0,0.18,0.0,0.17,0.24,0.0,0.0,0.0,0.01,0.18,0.0,0.17,0.23,0.0,0.0,0.0,0.0,0.0,0.0,0.0,0.0,368.1,368.1,0.0,0.0,3.68,1050.27,0.0,368.1,368.1,0.0,0.0,3.68,1050.27,0.0,0.0,0.0,0.0,0.0,0.0,0.0,0.07,368.21,368.28,3.85,472481.0,73197.0,12.3,6.49,4.64,12.11,13.39,11.12,0.0,0.0,0.0,0.0,0.0,0.0,48.08,51.92,33.59,0.0,0.0,0.0,37,27,36,37
NY,Richmond,36085,-74.1557,40.5802,474.558,0.0,474.558,474.558,0.0,0.0,0.0,0.0,0.0,32.74,69.0,0.0,32.74,0.0,0.0,0.0,0.18,0.0,0.17,0.24,0.0,0.0,0.0,0.01,0.18,0.0,0.17,0.23,0.0,0.0,0.0,0.0,0.0,0.0,0.0,0.0,368.1,368.1,0.0,0.0,3.68,1050.27,0.0,368.1,368.1,0.0,0.0,3.68,1050.27,0.0,0.0,0.0,0.0,0.0,0.0,0.0,0.07,368.21,368.28,3.85,472481.0,73197.0,12.3,6.49,4.64,12.11,13.39,11.12,0.0,0.0,0.0,0.0,0.0,0.0,48.08,51.92,33.59,0.0,0.0,0.0,37,27,36,37
NY,Richmond,36085,-74.1557,40.5802,474.558,0.0,474.558,474.558,0.0,0.0,0.0,0.0,0.0,32.74,69.0,0.0,32.74,0.0,0.0,0.0,0.18,0.0,0.17,0.24,0.0,0.0,0.0,0.01,0.18,0.0,0.17,0.23,0.0,0.0,0.0,0.0,0.0,0.0,0.0,0.0,368.1,368.1,0.0,0.0,3.68,1050.27,0.0,368.1,368.1,0.0,0.0,3.68,1050.27,0.0,0.0,0.0,0.0,0.0,0.0,0.0,0.07,368.21,368.28,3.85,472481.0,73197.0,12.3,6.49,4.64,12.11,13.39,11.12,0.0,0.0,0.0,0.0,0.0,0.0,48.08,51.92,33.59,0.0,0.0,0.0,37,27,36,37
NY,Richmond,36085,-74.1557,40.5802,474.558,0.0,474.558,474.558,0.0,0.0,0.0,0.0,0.0,32.74,69.0,0.0,32.74,0.0,0.0,0.0,0.18,0.0,0.17,0.24,0.0,0.0,0.0,0.01,0.18,0.0,0.17,0.23,0.0,0.0,0.0,0.0,0.0,0.0,0.0,0.0,368.1,368.1,0.0,0.0,3.68,1050.27,0.0,368.1,368.1,0.0,0.0,3.68,1050.27,0.0,0.0,0.0,0.0,0.0,0.0,0.0,0.07,368.21,368.28,3.85,472481.0,73197.0,12.3,6.49,4.64,12.11,13.39,11.12,0.0,0.0,0.0,0.0,0.0,0.0,48.08,51.92,33.59,0.0,0.0,0.0,37,27,36,37
NY,Richmond,36085,-74.1557,40.5802,474.558,0.0,474.558,474.558,0.0,0.0,0.0,0.0,0.0,32.74,69.0,0.0,32.74,0.0,0.0,0.0,0.18,0.0,0.17,0.24,0.0,0.0,0.0,0.01,0.18,0.0,0.17,0.23,0.0,0.0,0.0,0.0,0.0,0.0,0.0,0.0,368.1,368.1,0.0,0.0,3.68,1050.27,0.0,368.1,368.1,0.0,0.0,3.68,1050.27,0.0,0.0,0.0,0.0,0.0,0.0,0.0,0.07,368.21,368.28,3.85,472481.0,73197.0,12.3,6.49,4.64,12.11,13.39,11.12,0.0,0.0,0.0,0.0,0.0,0.0,48.08,51.92,33.59,0.0,0.0,0.0,37,27,36,37
NY,Richmond,36085,-74.1557,40.5802,474.558,0.0,474.558,474.558,0.0,0.0,0.0,0.0,0.0,32.74,69.0,0.0,32.74,0.0,0.0,0.0,0.18,0.0,0.17,0.24,0.0,0.0,0.0,0.01,0.18,0.0,0.17,0.23,0.0,0.0,0.0,0.0,0.0,0.0,0.0,0.0,368.1,368.1,0.0,0.0,3.68,1050.27,0.0,368.1,368.1,0.0,0.0,3.68,1050.27,0.0,0.0,0.0,0.0,0.0,0.0,0.0,0.07,368.21,368.28,3.85,472481.0,73197.0,12.3,6.49,4.64,12.11,13.39,11.12,0.0,0.0,0.0,0.0,0.0,0.0,48.08,51.92,33.59,0.0,0.0,0.0,37,27,36,37
NY,Richmond,36085,-74.1557,40.5802,474.558,0.0,474.558,474.558,0.0,0.0,0.0,0.0,0.0,32.74,69.0,0.0,32.74,0.0,0.0,0.0,0.18,0.0,0.17,0.24,0.0,0.0,0.0,0.01,0.18,0.0,0.17,0.23,0.0,0.0,0.0,0.0,0.0,0.0,0.0,0.0,368.1,368.1,0.0,0.0,3.68,1050.27,0.0,368.1,368.1,0.0,0.0,3.68,1050.27,0.0,0.0,0.0,0.0,0.0,0.0,0.0,0.07,368.21,368.28,3.85,472481.0,73197.0,12.3,6.49,4.64,12.11,13.39,11.12,0.0,0.0,0.0,0.0,0.0,0.0,48.08,51.92,33.59,0.0,0.0,0.0,37,27,36,37
